,License Type,License Expiration Date,License Status,License Creation Date,Industry,Business Name,Address Building,Address Street Name,Secondary Address Street Name,Address City,Address ZIP,Address Borough,Community Board,Council District,Census Tract,Longitude,Latitude,Location
0,Business,12/15/19,Active,2/17/15,Sidewalk Cafe,DISHFUL INC,189,E BROADWAY,,NEW YORK,10002,Manhattan,103.0,1.0,6.0,-73.98879598,40.71416978,"(40.71416977953143, -73.98879597867962)"
1,Business,12/15/19,Inactive,3/21/17,Sidewalk Cafe,"OBBM, LLC",88,BROAD ST,,NEW YORK,10004,Manhattan,101.0,1.0,9.0,-74.01158824,40.70405529,"(40.70405528945349, -74.01158823524035)"
2,Business,4/15/19,Active,5/3/13,Sidewalk Cafe,BROADWATER & PEARL ASSOCIATES LLC,54,PEARL ST,,NEW YORK,10004,Manhattan,101.0,1.0,9.0,-74.01137535,40.70349538,"(40.7034953786261, -74.01137534608392)"
3,Business,6/30/15,Inactive,4/3/08,Sidewalk Cafe,PEARLSTONE BURGER CORPORATION,77,PEARL ST,,NEW YORK,10004,Manhattan,101.0,1.0,9.0,-74.01029703,40.70395386,"(40.70395385590203, -74.01029703120159)"
4,Business,12/15/19,Active,5/29/13,Sidewalk Cafe,"BILL'S DTM NY, LLC",85,WEST ST,,NEW YORK,10006,Manhattan,101.0,1.0,13.0,-74.01487516,40.709646,"(40.70964599574448, -74.01487516042008)"
5,Business,4/15/19,Active,5/1/09,Sidewalk Cafe,RECTOR STREET FOOD ENTERPRISES LTD.,11,RECTOR ST,,NEW YORK,10006,Manhattan,101.0,1.0,13.0,-74.01350416,40.70793069,"(40.70793068772063, -74.01350416281929)"
6,Business,4/15/19,Active,3/24/09,Sidewalk Cafe,CAFE CASANO LLC,38,WEST ST,,NEW YORK,10004,Manhattan,101.0,1.0,13.0,-74.01596742,40.70690658,"(40.70690657551593, -74.01596741732033)"
7,Business,12/15/19,Active,3/24/09,Sidewalk Cafe,OSTERIA CASANO LLC,28,WEST ST,,NEW YORK,10004,Manhattan,101.0,1.0,13.0,-74.01594579,40.70696147,"(40.706961473792255, -74.01594578949806)"
8,Business,4/15/20,Active,4/18/18,Sidewalk Cafe,ZVAH INC.,37,CANAL ST,,NEW YORK,10002,Manhattan,103.0,1.0,16.0,-73.99107207,40.71465855,"(40.71465854603709, -73.99107206822782)"
9,Business,9/15/19,Active,3/4/13,Sidewalk Cafe,"PLAN A GROUP, LLC",138,DIVISION ST,,NEW YORK,10002,Manhattan,103.0,1.0,16.0,-73.99157711,40.7144692,"(40.71446919557813, -73.99157710648002)"
10,Business,9/15/16,Inactive,9/16/06,Sidewalk Cafe,ZVAH INC.,37,CANAL ST,,NEW YORK,10002,Manhattan,103.0,1.0,16.0,-73.99107207,40.71465855,"(40.71465854603709, -73.99107206822782)"
11,Business,2/16/19,Inactive,4/20/16,Sidewalk Cafe,SAIGONNYC LTD,85,ORCHARD ST,,NEW YORK,10002,Manhattan,103.0,1.0,18.0,-73.99037541,40.7178726,"(40.717872604455565, -73.99037540580335)"
12,Business,9/15/17,Inactive,3/20/15,Sidewalk Cafe,93 LUDLOW ST INC,95,DELANCEY ST,,NEW YORK,10002,Manhattan,103.0,1.0,18.0,-73.98921727,40.71884964,"(40.71884963627994, -73.98921726619577)"
13,Business,12/15/16,Inactive,10/9/14,Sidewalk Cafe,HH HOSPITALITY L.L.C.,61,DELANCEY ST,,NEW YORK,10002,Manhattan,103.0,1.0,18.0,-73.99092714,40.71936854,"(40.71936854326236, -73.99092713729125)"
14,Business,12/15/16,Inactive,7/3/14,Sidewalk Cafe,MILLER'S NEAR & FAR LLC,65,RIVINGTON ST,,NEW YORK,10002,Manhattan,103.0,1.0,18.0,-73.99015134,40.72060637,"(40.720606365884876, -73.99015134185616)"
15,Business,12/15/19,Inactive,6/9/14,Sidewalk Cafe,DCB DELANCEY CORPORATION,1,DELANCEY ST,,NEW YORK,10002,Manhattan,103.0,1.0,18.0,-73.99382027,40.72024157,"(40.720241568328824, -73.99382027141543)"
16,Business,4/15/18,Inactive,3/26/14,Sidewalk Cafe,NORMAN'S CAY GROUP LLC,74,ORCHARD ST,,NEW YORK,10002,Manhattan,103.0,1.0,18.0,-73.99050532,40.71757069,"(40.71757069164552, -73.9905053159014)"
17,Business,12/15/16,Inactive,5/21/13,Sidewalk Cafe,"NYLA CAFE, LLC",101,RIVINGTON ST,,NEW YORK,10002,Manhattan,103.0,1.0,18.0,-73.98823583,40.72003253,"(40.72003253145778, -73.98823582501339)"
18,Business,4/15/19,Active,3/14/13,Sidewalk Cafe,"TWO BIKES, LLC",85,ORCHARD ST,,NEW YORK,10002,Manhattan,103.0,1.0,18.0,-73.99037541,40.7178726,"(40.717872604455565, -73.99037540580335)"
19,Business,9/15/15,Inactive,2/1/13,Sidewalk Cafe,BAKERS DOZEN ASSOCIATES LLC,199,BOWERY,,NEW YORK,10002,Manhattan,103.0,1.0,18.0,-73.99370114,40.72114459,"(40.721144587541026, -73.99370113700846)"
20,Business,9/15/19,Active,1/3/13,Sidewalk Cafe,BARNORTH GROUP LLC,77,DELANCEY ST,,NEW YORK,10002,Manhattan,103.0,1.0,18.0,-73.99001087,40.7190885,"(40.71908850194956, -73.99001087423854)"
21,Business,4/15/19,Inactive,6/30/17,Sidewalk Cafe,PRET A MANGER (USA) LIMITED,125,CHAMBERS ST,,NEW YORK,10007,Manhattan,101.0,1.0,21.0,-74.00875487,40.71530907,"(40.71530906767869, -74.00875486944997)"
22,Business,12/15/18,Inactive,8/8/16,Sidewalk Cafe,MURRAY PLACE INC,23,PARK PL,,NEW YORK,10007,Manhattan,101.0,1.0,21.0,-74.00877261,40.71304464,"(40.713044638283755, -74.00877260781331)"
23,Business,12/15/18,Inactive,7/26/16,Sidewalk Cafe,SOLE DI CAPRI LLC,165,CHURCH ST,,NEW YORK,10007,Manhattan,101.0,1.0,21.0,-74.00775203,40.71514994,"(40.71514994344327, -74.0077520269982)"
24,Business,12/15/20,Active,6/19/14,Sidewalk Cafe,59 MACT CORP.,59,READE ST,,NEW YORK,10007,Manhattan,101.0,1.0,21.0,-74.00641371,40.71490849,"(40.71490848681854, -74.00641370594059)"
25,Business,12/15/20,Active,6/6/14,Sidewalk Cafe,61 READE PIZZA INC.,61,READE ST,,NEW YORK,10007,Manhattan,101.0,1.0,21.0,-74.00648225,40.71493868,"(40.714938675350496, -74.00648224679168)"
26,Business,12/15/15,Inactive,7/5/13,Sidewalk Cafe,"LENNY'S PARK PLACE, LLC",25,PARK PL,,NEW YORK,10007,Manhattan,101.0,1.0,21.0,-74.00885197,40.71308031,"(40.713080314110414, -74.00885197002346)"
27,Business,12/15/15,Inactive,1/11/12,Sidewalk Cafe,85 WEST BROADWAY OWNER LLC,85,W BROADWAY,,NEW YORK,10007,Manhattan,101.0,1.0,21.0,-74.0094727,40.71520197,"(40.71520196517725, -74.0094727030241)"
28,Business,7/15/15,Inactive,10/20/11,Sidewalk Cafe,"65 WEST BROADWAY RESTAURANT, LLC",65,W BROADWAY,,NEW YORK,10007,Manhattan,101.0,1.0,21.0,-74.00997402,40.71456239,"(40.714562393519984, -74.00997401848461)"
29,Business,12/15/17,Inactive,4/20/16,Sidewalk Cafe,BABU JI NYC INC,175,AVENUE B,,NEW YORK,10009,Manhattan,103.0,2.0,28.0,-73.97939143,40.72755741,"(40.72755741388275, -73.9793914272551)"
30,Business,4/15/19,Active,4/16/07,Sidewalk Cafe,177 CHRYSTIE INC.,145,AVENUE C,,NEW YORK,10009,Manhattan,103.0,2.0,28.0,-73.97792011,40.72538055,"(40.72538054900269, -73.97792010757803)"
31,Business,12/15/20,Inactive,7/11/18,Sidewalk Cafe,AVE B BUON GUSTO CORP.,76,AVENUE B,,NEW YORK,10009,Manhattan,103.0,2.0,32.0,-73.98332126,40.7244153,"(40.72441530347603, -73.98332126409099)"
32,Business,9/15/20,Inactive,6/20/18,Sidewalk Cafe,235 EAST 4TH INC,235,E 4TH ST,,NEW YORK,10009,Manhattan,103.0,2.0,32.0,-73.98275511,40.72338594,"(40.723385935925336, -73.98275511004177)"
33,Business,4/15/20,Inactive,7/5/16,Sidewalk Cafe,CIEN FUEGOS LLC,95,AVENUE A,,NEW YORK,10009,Manhattan,103.0,2.0,32.0,-73.98390545,40.725562700000005,"(40.72556269517426, -73.9839054462709)"
34,Business,4/15/19,Active,9/3/15,Sidewalk Cafe,FONDA AVENUE B LLC,40,AVENUE B,,NEW YORK,10009,Manhattan,103.0,2.0,32.0,-73.98265778,40.72307576,"(40.723075763655444, -73.98265778237968)"
35,Business,9/15/20,Active,4/8/15,Sidewalk Cafe,TOZZER LTD,110,AVENUE A,110-112 Ave A,NEW YORK,10009,Manhattan,103.0,2.0,32.0,-73.98362034,40.72591947,"(40.72591947338366, -73.9836203395797)"
36,Business,12/15/16,Inactive,8/27/14,Sidewalk Cafe,"LAPIZZA SHOP, INC.",110,AVENUE A,,NEW YORK,10009,Manhattan,103.0,2.0,32.0,-73.98364921,40.72588105,"(40.725881050889605, -73.98364921184492)"
37,Business,12/15/19,Active,7/2/14,Sidewalk Cafe,SEVEN A CAFE INC.,109,AVENUE A,,NEW YORK,10009,Manhattan,103.0,2.0,32.0,-73.9836095,40.72596888,"(40.72596887746701, -73.9836095038645)"
38,Business,4/15/16,Inactive,2/23/10,Sidewalk Cafe,AVE B BUON GUSTO CORP.,76,AVENUE B,,NEW YORK,10009,Manhattan,103.0,2.0,32.0,-73.98202619,40.72397869,"(40.72397869213127, -73.98202619121835)"
39,Business,9/15/19,Active,2/12/09,Sidewalk Cafe,DESMO 916 CORP.,545,E 5TH ST,,NEW YORK,10009,Manhattan,103.0,2.0,32.0,-73.98332126,40.7244153,"(40.72441530347603, -73.98332126409099)"
40,Business,4/15/16,Inactive,2/28/06,Sidewalk Cafe,THREE BEANS INC,93,AVENUE A,,NEW YORK,10009,Manhattan,103.0,2.0,32.0,-73.98403537,40.7253843,"(40.72538430404817, -73.9840353710819)"
41,Business,4/19/19,Active,2/24/06,Sidewalk Cafe,EAE CORP,94,AVENUE A,,NEW YORK,10009,Manhattan,103.0,2.0,32.0,-73.98388741,40.72555446,"(40.72555445838028, -73.98388740908517)"
42,Business,12/15/15,Inactive,2/28/05,Sidewalk Cafe,SEVEN A CAFE INC.,109,AVENUE A,,NEW YORK,10009,Manhattan,103.0,2.0,32.0,-73.9836095,40.72596888,"(40.72596887746701, -73.9836095038645)"
43,Business,3/1/19,Active,2/16/05,Sidewalk Cafe,"L&L FOODS OF FIRST AVENUE, LLC",104,1ST AVE,,NEW YORK,10009,Manhattan,103.0,2.0,32.0,-73.98601582,40.72658128,"(40.726581275632014, -73.98601581626089)"
44,Business,12/15/19,Active,5/21/04,Sidewalk Cafe,YUCA BAR & RESTAURANT INC.,111,AVENUE A,,NEW YORK,10009,Manhattan,103.0,2.0,32.0,-73.98347597,40.72615001,"(40.72615001233742, -73.98347596822626)"
45,Business,12/15/20,Inactive,4/25/18,Sidewalk Cafe,200 TRIBECA RESTAURANT LLC,200,CHURCH ST,,NEW YORK,10013,Manhattan,101.0,1.0,33.0,-74.00691525,40.71624241,"(40.71624241150911, -74.00691525329417)"
46,Business,7/15/19,Active,2/12/18,Sidewalk Cafe,ELEVEN FOOD AND BEVERAGE INC.,11,6TH AVE,,NEW YORK,10013,Manhattan,,,33.0,,,
47,Business,5/15/19,Active,12/15/17,Sidewalk Cafe,109 WEST BROADWAY FOOD & WINE LLC,109,W BROADWAY,,NEW YORK,10013,Manhattan,101.0,1.0,33.0,-74.00874776,40.71609681,"(40.71609681454299, -74.0087477582768)"
48,Business,9/15/19,Active,10/6/17,Sidewalk Cafe,"Kio Restaurant, LLC.",157,DUANE ST,,NEW YORK,10013,Manhattan,101.0,1.0,33.0,-74.00874424,40.71676105,"(40.71676104683799, -74.00874423809674)"
49,Business,12/15/19,Active,7/13/17,Sidewalk Cafe,"BALCONY CAFE, LLC",78,READE ST,,NEW YORK,10007,Manhattan,101.0,1.0,33.0,-74.00707026,40.71522684,"(40.71522684063731, -74.00707026079225)"
50,Business,4/15/20,Active,6/8/16,Sidewalk Cafe,TWO HANDS TRIBECA LLC,251,CHURCH ST,,NEW YORK,10013,Manhattan,101.0,1.0,33.0,-74.00562036,40.71786738,"(40.717867380050016, -74.0056203585319)"
51,Business,9/15/17,Inactive,8/3/15,Sidewalk Cafe,NORTH OF HOUSTON LLC,221,W BROADWAY,5 WHITE STREET,NEW YORK,10013,Manhattan,101.0,1.0,33.0,-74.0063095,40.71921777,"(40.71921776609878, -74.00630950336544)"
52,Business,5/15/17,Inactive,12/23/14,Sidewalk Cafe,ELEVEN FOOD AND BEVERAGE INC,11,AVENUE OF THE AMERICAS,6TH AVENUE,NEW YORK,10013,Manhattan,101.0,1.0,33.0,-74.00519119,40.71932212,"(40.71932212281128, -74.00519118899753)"
53,Business,12/15/16,Inactive,7/3/14,Sidewalk Cafe,BALCONY CAFE INC.,78,READE ST,,NEW YORK,10007,Manhattan,101.0,1.0,33.0,-74.00707026,40.71522684,"(40.71522684063731, -74.00707026079225)"
54,Business,12/15/20,Active,6/19/14,Sidewalk Cafe,Anejo Tribeca LLC,31,WALKER ST,,NEW YORK,10013,Manhattan,101.0,1.0,33.0,-74.00404040000001,40.7193057,"(40.71930570039222, -74.00404039627747)"
55,Business,9/15/20,Active,6/19/14,Sidewalk Cafe,WB DUANE JAPAN PARTNERS INC,130,W BROADWAY,,NEW YORK,10013,Manhattan,101.0,1.0,33.0,-74.00832577,40.71667325,"(40.71667324553042, -74.00832577348935)"
56,Business,9/15/20,Active,1/16/14,Sidewalk Cafe,229 BLEECKER LLC,222,W BROADWAY,,NEW YORK,10013,Manhattan,101.0,1.0,33.0,-74.00629147,40.71926992,"(40.71926991751429, -74.00629147082883)"
57,Business,4/15/20,Active,5/30/13,Sidewalk Cafe,"MEXMA, LLC",305,CHURCH ST,,NEW YORK,10013,Manhattan,101.0,1.0,33.0,-74.00429654,40.71954997,"(40.719549974698715, -74.00429654428905)"
58,Business,3/15/19,Active,11/23/12,Sidewalk Cafe,"268 WEST BROADWAY, LLC",35,AVENUE OF THE AMERICAS,,NEW YORK,10013,Manhattan,101.0,1.0,33.0,-74.00523098,40.72073293,"(40.72073292719465, -74.00523098219983)"
59,Business,3/15/19,Active,3/7/12,Sidewalk Cafe,135 WEST B FOOD & DRINK LLC,135,W BROADWAY,,NEW YORK,10013,Manhattan,101.0,1.0,33.0,-74.00823199,40.71675834,"(40.716758339844795, -74.00823199278983)"
60,Business,12/15/19,Active,2/6/12,Sidewalk Cafe,"TRIBECA GRAND HOTEL, INC.",32,WHITE ST,,NEW YORK,10013,Manhattan,101.0,1.0,33.0,-74.00466446,40.71877868,"(40.71877868298081, -74.00466445631908)"
61,Business,4/15/19,Active,3/8/07,Sidewalk Cafe,BANCONE LLC,34,WHITE ST,,NEW YORK,10013,Manhattan,101.0,1.0,33.0,-74.00459952,40.71875124,"(40.71875123799759, -74.0045995199983)"
62,Business,4/22/19,Active,9/16/06,Sidewalk Cafe,TK REST. CORP.,33,LEONARD ST,,NEW YORK,10013,Manhattan,101.0,1.0,33.0,-74.00734837,40.71841349,"(40.718413489926114, -74.00734837236405)"
63,Business,4/15/18,Inactive,4/12/06,Sidewalk Cafe,WEST BROADWAY MANAGEMENT LLC,179,W BROADWAY,,NEW YORK,10013,Manhattan,101.0,1.0,33.0,-74.00723289,40.71802649,"(40.71802648610947, -74.00723289201702)"
64,Business,12/15/16,Inactive,3/9/06,Sidewalk Cafe,RADIANTE LLC,131,DUANE ST,,NEW YORK,10013,Manhattan,101.0,1.0,33.0,-74.00744552,40.71616827,"(40.716168269902084, -74.0074455226523)"
65,Business,12/15/18,Inactive,2/15/06,Sidewalk Cafe,JADA RESTAURANT INC.,134,W BROADWAY,,NEW YORK,10013,Manhattan,101.0,1.0,33.0,-74.00825364,40.71676657,"(40.716766572576006, -74.00825363796221)"
66,Business,9/15/20,Active,2/8/06,Sidewalk Cafe,P.E.C. GROUP LTD.,281,W BROADWAY,,NEW YORK,10013,Manhattan,101.0,1.0,33.0,-74.00490271,40.72099918,"(40.72099918324524, -74.00490271255826)"
67,Business,9/15/17,Inactive,5/17/05,Sidewalk Cafe,241 W B WAY CAFE INC,241,W BROADWAY,,NEW YORK,10013,Manhattan,101.0,1.0,33.0,-74.00588747,40.71974478,"(40.71974478224253, -74.00588747336505)"
68,Business,9/15/20,Active,4/28/05,Sidewalk Cafe,REBA REALTY CORP.,16,N MOORE ST,,NEW YORK,10013,Manhattan,101.0,1.0,33.0,-74.00707435,40.71979687,"(40.719796865856566, -74.007074353122)"
69,Business,12/15/19,Inactive,2/2/05,Sidewalk Cafe,"136 WEST BROADWAY, INC.",136,W BROADWAY,,NEW YORK,10013,Manhattan,101.0,1.0,33.0,-74.00821396,40.71681324,"(40.71681323633885, -74.00821396276113)"
70,Business,9/15/19,Inactive,1/21/05,Sidewalk Cafe,"ANOTHEROOM, INC.",249,W BROADWAY,,NEW YORK,10013,Manhattan,101.0,1.0,33.0,-74.0057973,40.71986007,"(40.719860066704925, -74.00579729538171)"
71,Business,12/15/18,Inactive,1/19/05,Sidewalk Cafe,"TRIBECA GRAND HOTEL, INC.",2,AVENUE OF THE AMERICAS,,NEW YORK,10013,Manhattan,101.0,1.0,33.0,-74.00516592,40.71912725,"(40.71912724602971, -74.0051659214096)"
72,Business,4/15/20,Active,12/21/04,Sidewalk Cafe,"THE ODEON, INC.",145,W BROADWAY,,NEW YORK,10013,Manhattan,101.0,1.0,33.0,-74.00804805,40.71699166,"(40.71699165747449, -74.0080480456633)"
73,Business,12/15/20,Active,7/25/14,Sidewalk Cafe,"HEARTH RESTAURANT INVESTORS, LLC",403,E 12TH ST,,NEW YORK,10009,Manhattan,103.0,2.0,34.0,-73.98316836,40.72986362,"(40.72986362290686, -73.98316836156172)"
74,Business,9/15/18,Inactive,6/16/14,Sidewalk Cafe,YARDBIRD LLC,162,AVENUE B,,NEW YORK,10009,Manhattan,103.0,2.0,34.0,-73.97977402,40.72706617,"(40.7270661703141, -73.97977401836124)"
75,Business,5/7/19,Active,4/21/10,Sidewalk Cafe,"WESTVILLE RESTAURANT, INC.",173,AVENUE A,,NEW YORK,10009,Manhattan,103.0,2.0,34.0,-73.98186626,40.7283593,"(40.728359299044364, -73.98186625826531)"
76,Business,3/11/19,Active,1/20/10,Sidewalk Cafe,188 AVE A TAKE OUT FOOD CORP.,188,AVENUE A,,NEW YORK,10009,Manhattan,103.0,2.0,34.0,-73.98142592,40.72893014,"(40.728930138096985, -73.9814259247594)"
77,Business,4/15/20,Active,6/15/06,Sidewalk Cafe,ELSAYED III CORP.,293,E 10TH ST,,NEW YORK,10009,Manhattan,103.0,2.0,34.0,-73.98187365,40.72770605,"(40.72770604823561, -73.98187365192827)"
78,Business,4/15/16,Inactive,3/20/06,Sidewalk Cafe,NERA CORP.,145,AVENUE A,,NEW YORK,10009,Manhattan,103.0,2.0,34.0,-73.98260255,40.72735209,"(40.72735208710052, -73.98260255053802)"
79,Business,4/15/20,Inactive,10/30/18,Sidewalk Cafe,WHITMANS 261 HUDSON LLC,261,HUDSON ST,,NEW YORK,10013,Manhattan,102.0,3.0,37.0,-74.00773152,40.72491854,"(40.724918542508895, -74.00773151650152)"
80,Business,9/15/20,Active,3/14/18,Sidewalk Cafe,SOHO MARKET & BEER MERCHANTS INC,213,6TH AVE,,NEW YORK,10014,Manhattan,102.0,3.0,37.0,-74.00327961,40.72741374,"(40.72741373934022, -74.00327961345734)"
81,Business,4/15/19,Active,8/14/17,Sidewalk Cafe,LOCAL & VINE CO CORP,282,HUDSON ST,,NEW YORK,10013,Manhattan,102.0,3.0,37.0,-74.00762334,40.72540163,"(40.72540162699202, -74.00762333774652)"
82,Business,5/15/18,Inactive,9/6/16,Sidewalk Cafe,HAPPY COOKING BISTRO LLC,322,SPRING ST,,NEW YORK,10013,Manhattan,102.0,3.0,37.0,-74.00921808,40.72599438,"(40.72599437787914, -74.00921807912914)"
83,Business,4/15/20,Active,8/25/16,Sidewalk Cafe,BOX HILL LLC,18,KING ST,,NEW YORK,10014,Manhattan,102.0,3.0,37.0,-74.00363321,40.72770193,"(40.727701928138686, -74.00363320685803)"
84,Business,4/15/20,Active,6/8/16,Sidewalk Cafe,SOHO 75 LLC,75,VARICK ST,,NEW YORK,10013,Manhattan,102.0,1.0,37.0,-74.00622690000002,40.72321688,"(40.72321688398667, -74.00622690468593)"
85,Business,4/15/19,Active,5/19/15,Sidewalk Cafe,"ADORO LEI, LLC",287,HUDSON ST,,NEW YORK,10013,Manhattan,102.0,3.0,37.0,-74.00763777,40.72544554,"(40.72544554214919, -74.00763777408629)"
86,Business,4/15/20,Active,5/1/15,Sidewalk Cafe,LAYLA TOV INC,333,HUDSON ST,,NEW YORK,10013,Manhattan,102.0,3.0,37.0,-74.00737819,40.72702928,"(40.727029283756664, -74.00737818573637)"
87,Business,4/15/17,Inactive,4/23/15,Sidewalk Cafe,HAPPY COOKING BISTRO LLC,322,SPRING ST,,NEW YORK,10013,Manhattan,102.0,3.0,37.0,-74.00921808,40.72599438,"(40.72599437787914, -74.00921807912914)"
88,Business,4/15/19,Active,3/20/15,Sidewalk Cafe,UNION BAR AND KITCHEN LLC,300,SPRING ST,,NEW YORK,10013,Manhattan,102.0,3.0,37.0,-74.007995,40.7258737,"(40.72587369999554, -74.00799500052842)"
89,Business,9/15/20,Active,3/26/14,Sidewalk Cafe,KENNEDY ORGANICS LLC,5,KING ST,,NEW YORK,10012,Manhattan,102.0,3.0,37.0,-74.00279616,40.72763608,"(40.72763607735732, -74.00279615941632)"
90,Business,9/15/19,Active,5/8/13,Sidewalk Cafe,"CITY WINERY NEW YORK, LLC",155,VARICK ST,,NEW YORK,10013,Manhattan,102.0,3.0,37.0,-74.00568601,40.72632398,"(40.72632397729548, -74.00568601351985)"
91,Business,5/1/17,Inactive,5/7/13,Sidewalk Cafe,G CHEW LLC,190,6TH AVE,,NEW YORK,10013,Manhattan,102.0,3.0,37.0,-74.00353573,40.72643660000001,"(40.726436598429856, -74.00353572504063)"
92,Business,9/15/19,Active,4/17/13,Sidewalk Cafe,PRET A MANGER (USA) LIMITED,350,HUDSON ST,,NEW YORK,10014,Manhattan,102.0,3.0,37.0,-74.00727361,40.72754805,"(40.72754804937303, -74.00727361282912)"
93,Business,12/15/15,Inactive,2/7/13,Sidewalk Cafe,WESTVILLE HUDSON LLC,333,HUDSON ST,,NEW YORK,10013,Manhattan,102.0,3.0,37.0,-74.00737819,40.72702928,"(40.727029283756664, -74.00737818573637)"
94,Business,12/15/19,Active,3/26/09,Sidewalk Cafe,110 VARICK ST. CORP.,110,VARICK ST,,NEW YORK,10013,Manhattan,102.0,3.0,37.0,-74.00600695,40.72449321,"(40.724493208001604, -74.00600694951443)"
95,Business,12/15/16,Inactive,8/1/06,Sidewalk Cafe,NEW MEKONG RESTAURANT CORP.,16,KING ST,,NEW YORK,10014,Manhattan,,,37.0,-77.51958437,40.11238534,"(40.11238533659802, -77.51958437167269)"
96,Business,4/15/18,Inactive,5/3/06,Sidewalk Cafe,"MOUQUINHO ENTERPRISES, INC.",549,GREENWICH ST,,NEW YORK,10013,Manhattan,102.0,3.0,37.0,-74.00885387,40.7273613,"(40.727361295273745, -74.00885386699937)"
97,Business,4/15/19,Active,2/25/05,Sidewalk Cafe,RIOMAR CORP.,324,SPRING ST,,NEW YORK,10013,Manhattan,102.0,3.0,37.0,-74.00931188,40.7260026,"(40.726002604601796, -74.00931188460676)"
98,Business,3/15/19,Active,9/13/18,Sidewalk Cafe,ESQEV LLC,83,1ST AVE,,NEW YORK,10003,Manhattan,103.0,2.0,38.0,-73.98654632,40.72587319,"(40.72587319157503, -73.98654631912504)"
99,Business,2/15/19,Inactive,12/19/17,Sidewalk Cafe,Bytelogics Inc,304,E 6TH ST,,NEW YORK,10003,Manhattan,103.0,2.0,38.0,-73.9881191,40.72721555,"(40.72721555063613, -73.98811910338063)"
100,Business,2/15/19,Active,9/6/16,Sidewalk Cafe,CJFM LLC,84,E 4TH ST,,NEW YORK,10003,Manhattan,103.0,2.0,38.0,-73.98975363,40.72631543,"(40.726315427516546, -73.9897536317576)"
101,Business,9/15/18,Inactive,4/19/16,Sidewalk Cafe,BEER FACTORY LLC,104,2ND AVE,,NEW YORK,10003,Manhattan,103.0,2.0,38.0,-73.98846542,40.72748457,"(40.72748457197698, -73.98846541760665)"
102,Business,2/28/19,Active,3/15/16,Sidewalk Cafe,PLANT BASED PIZZA NEW YORK LLC,65,2ND AVE,,NEW YORK,10003,Manhattan,103.0,2.0,38.0,-73.98954803,40.72604093,"(40.726040933352074, -73.98954802586807)"
103,Business,2/15/19,Inactive,3/14/16,Sidewalk Cafe,LOCAL 92 INC,92,2ND AVE,,NEW YORK,10003,Manhattan,103.0,2.0,38.0,-73.98881908,40.7269933,"(40.72699329545698, -73.98881907810069)"
104,Business,6/5/16,Inactive,6/18/15,Sidewalk Cafe,BLCH I LLC,99,2ND AVE,,NEW YORK,10003,Manhattan,103.0,2.0,38.0,-73.98866029,40.72725129,"(40.727251287038676, -73.98866028603422)"
105,Business,12/15/19,Active,6/5/15,Sidewalk Cafe,EVIR CORP,117,2ND AVE,,NEW YORK,10003,Manhattan,103.0,2.0,38.0,-73.98819114,40.72789351,"(40.727893512861215, -73.98819114174162)"
106,Business,9/15/16,Inactive,7/25/14,Sidewalk Cafe,A & J FROZEN YOGURT CORP.,66,2ND AVE,,NEW YORK,10003,Manhattan,103.0,2.0,38.0,-73.98956247,40.72598604,"(40.725986039523846, -73.98956246591085)"
107,Business,9/15/16,Inactive,6/9/14,Sidewalk Cafe,FIGARO VILLAGGIO INC.,97,1ST AVE,344 E. 6TH STREET,NEW YORK,10003,Manhattan,103.0,2.0,38.0,-73.98623956,40.72630957,"(40.72630957166937, -73.9862395615795)"
108,Business,4/15/20,Active,5/17/14,Sidewalk Cafe,"OTTO'S TACOS, LLC",141,2ND AVE,,NEW YORK,10003,Manhattan,103.0,2.0,38.0,-73.98737914,40.72901878,"(40.729018776682125, -73.98737913726657)"
109,Business,4/15/19,Active,6/7/13,Sidewalk Cafe,"CMH BBQ HOLDINGS, LLC",103,2ND AVE,,NEW YORK,10003,Manhattan,103.0,2.0,38.0,-73.98848346,40.72749281,"(40.7274928080516, -73.98848345588063)"
110,Business,9/15/18,Inactive,6/29/12,Sidewalk Cafe,"BARE CITY TWO, LLC",85,2ND AVE,,NEW YORK,10003,Manhattan,103.0,2.0,38.0,-73.98906086,40.72669414,"(40.726694140211706, -73.98906085736922)"
111,Business,3/15/15,Inactive,5/21/12,Sidewalk Cafe,KY & YL INC.,104,2ND AVE,,NEW YORK,10003,Manhattan,103.0,2.0,38.0,-73.98846542,40.72748457,"(40.72748457197698, -73.98846541760665)"
112,Business,5/15/19,Active,11/29/11,Sidewalk Cafe,TRIM CASTLE CORP.,87,2ND AVE,,NEW YORK,10003,Manhattan,103.0,2.0,38.0,-73.98892733,40.72687803,"(40.72687802614255, -73.98892733463914)"
113,Business,12/15/19,Active,4/18/11,Sidewalk Cafe,EAST VILLAGE 4TH STREET CAFE INC.,78,E 4TH ST,,NEW YORK,10003,Manhattan,103.0,2.0,38.0,-73.99000256,40.72642249,"(40.72642249491312, -73.9900025591503)"
114,Business,5/15/18,Inactive,5/6/10,Sidewalk Cafe,M & R MEDITERRANEAN CORP,304,E 6TH ST,,NEW YORK,10003,Manhattan,103.0,2.0,38.0,-73.9881191,40.72721555,"(40.72721555063613, -73.98811910338063)"
115,Business,9/15/16,Inactive,3/9/10,Sidewalk Cafe,"BALLARO, INC.",77,2ND AVE,,NEW YORK,10003,Manhattan,103.0,2.0,38.0,-73.98921603,40.72648555,"(40.7264855533407, -73.9892160306798)"
116,Business,4/30/19,Active,2/8/10,Sidewalk Cafe,A & D WINE CORP.,65,2ND AVE,,NEW YORK,10003,Manhattan,103.0,2.0,38.0,-73.98954803,40.72604093,"(40.726040933352074, -73.98954802586807)"
117,Business,3/8/19,Active,1/19/10,Sidewalk Cafe,"CAFE MOCHA, INC.",116,2ND AVE,,NEW YORK,10003,Manhattan,103.0,2.0,38.0,-73.9881731,40.72788528,"(40.72788527674125, -73.98817310339533)"
118,Business,5/15/19,Active,6/30/09,Sidewalk Cafe,"SHARAKU, INC.",14,STUYVESANT ST,,NEW YORK,10003,Manhattan,103.0,2.0,38.0,-73.98921188,40.72986160000001,"(40.729861602951175, -73.98921187626529)"
119,Business,4/15/17,Inactive,4/1/09,Sidewalk Cafe,58 2ND AVE REST CORP.,58,2ND AVE,,NEW YORK,10003,Manhattan,103.0,2.0,38.0,-73.98971764,40.72577471,"(40.725774707199776, -73.98971763642615)"
120,Business,5/1/19,Active,4/30/08,Sidewalk Cafe,"MEATH TRAILS, INC.",61,2ND AVE,,NEW YORK,10003,Manhattan,103.0,2.0,38.0,-73.98963463,40.72592017,"(40.72592017187683, -73.9896346333224)"
121,Business,3/25/19,Active,6/20/07,Sidewalk Cafe,88 2ND AVE. FOOD CORP.,88,2ND AVE,,NEW YORK,10003,Manhattan,103.0,2.0,38.0,-73.9889093,40.72686979,"(40.72686979013676, -73.98890929647672)"
122,Business,3/31/19,Active,5/16/07,Sidewalk Cafe,EAST PUB INC,359,BOWERY,,NEW YORK,10003,Manhattan,103.0,2.0,38.0,-73.99161162,40.72687551,"(40.72687550822756, -73.99161161747732)"
123,Business,4/15/19,Active,4/16/07,Sidewalk Cafe,"POINT JUDITH, LLC",96,2ND AVE,,NEW YORK,10003,Manhattan,103.0,2.0,38.0,-73.98872886,40.72711955,"(40.727119545460916, -73.98872885892602)"
124,Business,12/15/19,Active,3/1/07,Sidewalk Cafe,"KITCHEN TABLE, INC.",88,2ND AVE,,NEW YORK,10003,Manhattan,103.0,2.0,38.0,-73.9889093,40.72686979,"(40.72686979013676, -73.98890929647672)"
125,Business,9/15/17,Inactive,3/1/07,Sidewalk Cafe,HAVELI RESTAURANT INC.,100,2ND AVE,,NEW YORK,10003,Manhattan,103.0,2.0,38.0,-73.98863864,40.72724305,"(40.72724305063554, -73.98863863987745)"
126,Business,8/16/18,Active,11/22/06,Sidewalk Cafe,"78 SECOND AVE. SANDWICH SHOP, INC.",78,2ND AVE,,NEW YORK,10003,Manhattan,103.0,2.0,38.0,-73.98921964,40.72644713,"(40.72644712708479, -73.9892196447813)"
127,Business,5/8/19,Active,5/5/06,Sidewalk Cafe,"TWO AND EIGHT GOURMET, LTD.",132,2ND AVE,,NEW YORK,10003,Manhattan,103.0,2.0,38.0,-73.98759929,40.728681200000004,"(40.728681195632056, -73.98759928946133)"
128,Business,9/15/16,Inactive,3/29/06,Sidewalk Cafe,92 ADRIANNA INC.,92,2ND AVE,,NEW YORK,10003,Manhattan,103.0,2.0,38.0,-73.98881908,40.7269933,"(40.72699329545698, -73.98881907810069)"
129,Business,3/6/19,Active,2/10/06,Sidewalk Cafe,"N.Y. RESTAURANT SUPPLIES, INC.",8,STUYVESANT ST,,NEW YORK,10003,Manhattan,103.0,2.0,38.0,-73.98939589,40.72983692,"(40.729836917244995, -73.98939589166952)"
130,Business,4/15/20,Active,2/10/06,Sidewalk Cafe,"MSD ENTERPRISES,INC",118,2ND AVE,,NEW YORK,10003,Manhattan,103.0,2.0,38.0,-73.98804318,40.72806367,"(40.72806367247522, -73.98804318478493)"
131,Business,12/15/16,Inactive,3/2/05,Sidewalk Cafe,A & Z RESTAURANT CORP.,65,2ND AVE,,NEW YORK,10003,Manhattan,103.0,2.0,38.0,-73.98954803,40.72604093,"(40.726040933352074, -73.98954802586807)"
132,Business,12/15/18,Inactive,2/4/05,Sidewalk Cafe,FELLOW TRAVELERS LTD.,83,1ST AVE,,NEW YORK,10003,Manhattan,103.0,2.0,38.0,-73.98654632,40.72587319,"(40.72587319157503, -73.98654631912504)"
133,Business,9/15/19,Active,3/5/03,Sidewalk Cafe,VESELKA ENTERPRISES LTD.,144,2ND AVE,,NEW YORK,10003,Manhattan,103.0,2.0,38.0,-73.98730335,40.72909288,"(40.729092876756894, -73.98730335467506)"
134,Business,12/15/20,Active,6/21/18,Sidewalk Cafe,TRIBECA BAKERY LLC,452,WASHINGTON ST,,NEW YORK,10013,Manhattan,101.0,1.0,39.0,-74.01026766,40.72399336,"(40.72399336100704, -74.01026765772984)"
135,Business,12/15/19,Active,12/22/17,Sidewalk Cafe,THANA REST INC.,190A,DUANE ST,,NEW YORK,10013,Manhattan,101.0,1.0,39.0,-74.0103929,40.7174224,"(40.71742239702154, -74.01039290426914)"
136,Business,12/15/19,Active,3/6/17,Sidewalk Cafe,AEMAL LLC,385,GREENWICH ST,,NEW YORK,10013,Manhattan,101.0,1.0,39.0,-74.01015524,40.72021109,"(40.72021109395703, -74.01015524111843)"
137,Business,2/16/19,Active,1/5/16,Sidewalk Cafe,"SWEETGREEN NEW YORK, LLC",413,GREENWICH ST,,NEW YORK,10013,Manhattan,101.0,1.0,39.0,-74.00992814,40.72135293,"(40.721352933445644, -74.00992813583338)"
138,Business,12/15/19,Inactive,7/2/15,Sidewalk Cafe,"355 GREENWICH BAKERY, LLC",355,GREENWICH ST,,NEW YORK,10013,Manhattan,101.0,1.0,39.0,-74.01037509999999,40.71889908,"(40.718899079408246, -74.01037509716315)"
139,Business,12/15/16,Inactive,8/20/14,Sidewalk Cafe,"AFNYC, LLC",205,HUDSON ST,,NEW YORK,10013,Manhattan,101.0,1.0,39.0,-74.00836274,40.72381511,"(40.723815105872475, -74.00836274312697)"
140,Business,4/15/16,Inactive,8/6/14,Sidewalk Cafe,LAIGHT RESTAURANT CORP.,429,GREENWICH ST,AKA: 62 LAIGHT ST,NEW YORK,10013,Manhattan,101.0,1.0,39.0,-74.00974067,40.72222029,"(40.72222029313694, -74.00974066701161)"
141,Business,4/15/18,Inactive,7/25/14,Sidewalk Cafe,SILMOR ENTERPRISES CORP,361,GREENWICH ST,,NEW YORK,10013,Manhattan,101.0,1.0,39.0,-74.01034266,40.71909396,"(40.71909396025184, -74.0103426601329)"
142,Business,5/15/15,Inactive,5/31/13,Sidewalk Cafe,MVNBC CORP.,189,FRANKLIN ST,,NEW YORK,10013,Manhattan,101.0,1.0,39.0,-74.00970418,40.71938496,"(40.71938496033709, -74.00970417761614)"
143,Business,6/30/15,Inactive,5/30/13,Sidewalk Cafe,"SALAAM BOMBAY, INC.",317,GREENWICH ST,,NEW YORK,10013,Manhattan,,,39.0,-77.51958437,40.11238534,"(40.11238533659802, -77.51958437167269)"
144,Business,12/15/15,Inactive,5/8/13,Sidewalk Cafe,LDV GREENWICH LLC,363,GREENWICH ST,,NEW YORK,10013,Manhattan,101.0,1.0,39.0,-74.01033185,40.71915709,"(40.719157090690274, -74.01033184746368)"
145,Business,12/15/15,Inactive,5/1/13,Sidewalk Cafe,"PACHANGA, INC.",450,WASHINGTON ST,,NEW YORK,10013,Manhattan,101.0,1.0,39.0,-74.01028208,40.72391925,"(40.723919251263105, -74.01028207729765)"
146,Business,4/15/18,Inactive,2/23/12,Sidewalk Cafe,"ZUTTO SQUARED, LLC",77,HUDSON ST,,NEW YORK,10013,Manhattan,101.0,1.0,39.0,-74.00887071,40.71838868,"(40.71838867985726, -74.00887071228594)"
147,Business,4/15/20,Active,2/23/12,Sidewalk Cafe,NO MOORE OYSTERS LLC,71,N MOORE ST,,NEW YORK,10013,Manhattan,101.0,1.0,39.0,-74.00984497,40.72009035,"(40.72009035150644, -74.00984497435196)"
148,Business,12/15/19,Active,3/10/11,Sidewalk Cafe,"SARABETH'S TRIBECA, LLC",339,GREENWICH ST,,NEW YORK,10013,Manhattan,101.0,1.0,39.0,-74.01049764,40.71821562,"(40.71821562314176, -74.0104976436534)"
149,Business,3/19/15,Inactive,10/20/10,Sidewalk Cafe,"MARYANN'S 353 MEX, INC.",353,GREENWICH ST,,NEW YORK,10013,Manhattan,101.0,1.0,39.0,-74.01040753,40.71869871,"(40.718698709031244, -74.0104075331465)"
150,Business,4/15/19,Active,8/6/10,Sidewalk Cafe,MVNBC CORP.,189,FRANKLIN ST,,NEW YORK,10013,Manhattan,101.0,1.0,39.0,-74.00970418,40.71938496,"(40.71938496033709, -74.00970417761614)"
151,Business,4/25/19,Active,6/16/10,Sidewalk Cafe,TECTON CAFE INC.,460,GREENWICH ST,,NEW YORK,10013,Manhattan,101.0,1.0,39.0,-74.00948835,40.72376287,"(40.723762868218586, -74.00948835081698)"
152,Business,9/15/19,Active,7/24/09,Sidewalk Cafe,GREENWICH HOTEL RESTAURANT LLC,377,GREENWICH ST,,NEW YORK,10013,Manhattan,101.0,1.0,39.0,-74.01022733,40.71978291,"(40.71978290515053, -74.01022732632511)"
153,Business,4/25/19,Active,12/16/06,Sidewalk Cafe,"GIGINO, INC.",323,GREENWICH ST,,NEW YORK,10013,Manhattan,101.0,1.0,39.0,-74.01070313,40.71738669,"(40.71738668671694, -74.01070313448439)"
154,Business,12/15/17,Inactive,6/16/05,Sidewalk Cafe,NONNA RESTUARANT CORP,190A,DUANE ST,,NEW YORK,10013,Manhattan,,,39.0,-77.51958437,40.11238534,"(40.11238533659802, -77.51958437167269)"
155,Business,9/15/15,Inactive,2/17/05,Sidewalk Cafe,"HARRISON GREENWICH, LLC",355,GREENWICH ST,,NEW YORK,10013,Manhattan,101.0,1.0,39.0,-74.01037509999999,40.71889908,"(40.718899079408246, -74.01037509716315)"
156,Business,9/15/20,Active,6/21/18,Sidewalk Cafe,PURE GREEN NYC 10TH STREET CORP,152,2ND AVE,,NEW YORK,10003,Manhattan,103.0,2.0,40.0,-73.98701825,40.72947711,"(40.72947711076323, -73.98701824572565)"
157,Business,12/15/20,Active,4/18/18,Sidewalk Cafe,"WAGAMAMA NY 55 3RD, LLC",55,3RD AVE,,NEW YORK,10003,Manhattan,103.0,2.0,40.0,-73.98884006,40.73099515,"(40.73099515143394, -73.98884005540712)"
158,Business,4/15/19,Inactive,9/6/17,Sidewalk Cafe,oishi village sushi,199,2ND AVE,,NEW YORK,10003,Manhattan,103.0,2.0,40.0,-73.98572618,40.73128575,"(40.731285751578305, -73.98572617736247)"
159,Business,4/15/19,Active,4/18/17,Sidewalk Cafe,LOVE MAMAK CORP,174,2ND AVE,,NEW YORK,10003,Manhattan,103.0,2.0,40.0,-73.98629643,40.73047063,"(40.73047062859094, -73.98629643194597)"
160,Business,9/15/20,Active,2/23/17,Sidewalk Cafe,177 1ST AVE LLC,177,1ST AVE,,NEW YORK,10003,Manhattan,103.0,2.0,40.0,-73.98407413,40.72928461,"(40.72928460831135, -73.98407412508558)"
161,Business,3/18/19,Active,6/23/16,Sidewalk Cafe,JOYFUL EATS LLC,179,2ND AVE,,NEW YORK,10003,Manhattan,103.0,2.0,40.0,-73.98623507,40.73059139,"(40.73059139050189, -73.98623506928112)"
162,Business,9/15/18,Inactive,4/20/16,Sidewalk Cafe,WEN ZI INC.,157,2ND AVE,,NEW YORK,10003,Manhattan,103.0,2.0,40.0,-73.98698576,40.72955396,"(40.7295539602529, -73.98698575829097)"
163,Business,4/15/18,Inactive,1/5/16,Sidewalk Cafe,DY SCHNITZ LLC,177,1ST AVE,,NEW YORK,10003,Manhattan,103.0,2.0,40.0,-73.98407413,40.72928461,"(40.72928460831135, -73.98407412508558)"
164,Business,4/15/17,Inactive,10/9/15,Sidewalk Cafe,"DUMPLING 2 AVENUE,  INC",188,2ND AVE,,NEW YORK,10003,Manhattan,103.0,2.0,40.0,-73.98601131,40.73086309,"(40.730863094296424, -73.98601130956717)"
165,Business,4/15/20,Active,6/13/14,Sidewalk Cafe,MSB RESTAURANTS LLC,151,2ND AVE,,NEW YORK,10003,Manhattan,103.0,2.0,40.0,-73.98709042,40.72941673,"(40.72941673425345, -73.98709041836926)"
166,Business,12/15/19,Inactive,5/7/14,Sidewalk Cafe,"LA MERIDIANA I, LTD",176,2ND AVE,,NEW YORK,10003,Manhattan,103.0,2.0,40.0,-73.98625673,40.73052826,"(40.730528263719364, -73.9862567309466)"
167,Business,9/15/18,Inactive,1/16/14,Sidewalk Cafe,ATLAS HUGGED INCORPORATED,213,2ND AVE,,NEW YORK,10003,Manhattan,103.0,2.0,40.0,-73.98533277,40.73182642,"(40.73182641884441, -73.98533277051997)"
168,Business,9/15/17,Inactive,12/24/13,Sidewalk Cafe,2ND AVENUE SENG CORP.,174,2ND AVE,,NEW YORK,10003,Manhattan,103.0,2.0,40.0,-73.98629643,40.73047063,"(40.73047062859094, -73.98629643194597)"
169,Business,12/15/15,Inactive,5/14/13,Sidewalk Cafe,"ALDER RESTAURANT, LLC",157,2ND AVE,,NEW YORK,10003,Manhattan,103.0,2.0,40.0,-73.98698576,40.72955396,"(40.7295539602529, -73.98698575829097)"
170,Business,12/15/18,Inactive,8/27/12,Sidewalk Cafe,DUCKS EATERY EV LLC,351,E 12TH ST,,NEW YORK,10003,Manhattan,103.0,2.0,40.0,-73.98470164,40.73051434,"(40.73051434384185, -73.98470164119949)"
171,Business,12/15/18,Inactive,4/13/12,Sidewalk Cafe,"LETTA #1, LLC.",160,2ND AVE,,NEW YORK,10003,Manhattan,103.0,2.0,40.0,-73.98673313,40.72986134,"(40.72986134404334, -73.98673313348834)"
172,Business,4/15/15,Inactive,3/14/11,Sidewalk Cafe,BIG DUMPLING CORP.,174,2ND AVE,,NEW YORK,10003,Manhattan,103.0,2.0,40.0,-73.98629643,40.73047063,"(40.73047062859094, -73.98629643194597)"
173,Business,4/15/16,Inactive,12/29/10,Sidewalk Cafe,CHURCH & LOUIS INC.,180,2ND AVE,,NEW YORK,10003,Manhattan,103.0,2.0,40.0,-73.98617372,40.73064079,"(40.73064078874551, -73.98617372120093)"
174,Business,4/15/20,Active,6/2/10,Sidewalk Cafe,EAST COUNTY LOUTH INC.,103,3RD AVE,,NEW YORK,10003,Manhattan,103.0,2.0,40.0,-73.987779,40.73245251,"(40.73245250849258, -73.98777899804624)"
175,Business,3/20/19,Active,5/28/10,Sidewalk Cafe,149 SECOND AVE. REST. INC.,149,2ND AVE,,NEW YORK,10003,Manhattan,103.0,2.0,40.0,-73.9871229,40.72937008,"(40.72937007704444, -73.98712289978198)"
176,Business,9/15/15,Inactive,6/22/09,Sidewalk Cafe,LA MERIDIANA 2 LTD.,176,2ND AVE,,NEW YORK,10003,Manhattan,103.0,2.0,40.0,-73.98625673,40.73052826,"(40.730528263719364, -73.9862567309466)"
177,Business,4/15/18,Inactive,2/28/08,Sidewalk Cafe,211 AVE A RESTAURANT INC.,197,2ND AVE,,NEW YORK,10003,Manhattan,103.0,2.0,40.0,-73.98576949,40.73123086,"(40.73123086183965, -73.98576948682795)"
178,Business,4/15/19,Active,4/15/07,Sidewalk Cafe,PEPRICO INC.,182,2ND AVE,,NEW YORK,10003,Manhattan,103.0,2.0,40.0,-73.98613402,40.73069568,"(40.73069567907519, -73.98613402056519)"
179,Business,9/15/18,Inactive,7/18/06,Sidewalk Cafe,STARBUCKS CORPORATION,145,2ND AVE,,NEW YORK,10003,Manhattan,103.0,2.0,40.0,-73.98719147,40.72927951,"(40.72927950775503, -73.98719146997989)"
180,Business,9/15/20,Active,2/21/06,Sidewalk Cafe,"MANNAGGIA, INC.",163,1ST AVE,,NEW YORK,10003,Manhattan,103.0,2.0,40.0,-73.98437729999999,40.72886196,"(40.72886195745305, -73.9843772992757)"
181,Business,9/15/15,Inactive,2/25/05,Sidewalk Cafe,151 SECOND AVE. REST. INC.,151,2ND AVE,,NEW YORK,10003,Manhattan,103.0,2.0,40.0,-73.98709042,40.72941673,"(40.72941673425345, -73.98709041836926)"
182,Business,3/6/18,Inactive,12/17/04,Sidewalk Cafe,A. VENIERO INC.,342,E 11TH ST,,NEW YORK,10003,Manhattan,103.0,2.0,40.0,-73.98531154,40.72991881,"(40.7299188113451, -73.98531154196559)"
183,Business,5/12/19,Active,9/18/18,Sidewalk Cafe,ROOT NOLITA LLC,371,BROOME ST,,NEW YORK,10013,Manhattan,102.0,1.0,41.0,-73.99615796,40.72022246,"(40.72022245675827, -73.99615796319209)"
184,Business,4/15/20,Active,5/2/18,Sidewalk Cafe,390 BROOME RESTAURANT LLC,390,BROOME ST,,NEW YORK,10013,Manhattan,102.0,1.0,41.0,-73.99690832,40.72054362,"(40.720543616153485, -73.99690831792435)"
185,Business,4/15/19,Active,10/6/17,Sidewalk Cafe,"SAL'S FAMILY PIZZA, INC",384,BROOME ST,,NEW YORK,10013,Manhattan,102.0,1.0,41.0,-73.99657282,40.72040911,"(40.720409113467205, -73.99657282141827)"
186,Business,12/15/19,Active,8/14/17,Sidewalk Cafe,"Tomino, LLC",192,GRAND ST,,NEW YORK,10013,Manhattan,102.0,1.0,41.0,-73.99702743,40.7192426,"(40.719242603448414, -73.9970274255534)"
187,Business,4/15/19,Active,7/6/17,Sidewalk Cafe,153 ELIZABETH HOTEL LLC,30,KENMARE ST,,NEW YORK,10012,Manhattan,102.0,1.0,41.0,-73.99517307,40.72068628,"(40.72068628394274, -73.99517306945903)"
188,Business,12/15/19,Inactive,6/30/17,Sidewalk Cafe,ALSW MOTT LLC,52,KENMARE ST,,NEW YORK,10012,Manhattan,102.0,1.0,41.0,-73.99560236,40.72083177,"(40.720831773358945, -73.9956023608567)"
189,Business,12/15/19,Inactive,4/7/17,Sidewalk Cafe,THE EGG SHOP LES LLC,151,ELIZABETH ST,,NEW YORK,10012,Manhattan,102.0,1.0,41.0,-73.99508651,40.72035691,"(40.720356909209585, -73.9950865120281)"
190,Business,9/15/19,Inactive,2/16/17,Sidewalk Cafe,"FOOD COMMISSION, LLC",30,KENMARE ST,,NEW YORK,10012,Manhattan,102.0,1.0,41.0,-73.99517307,40.72068628,"(40.72068628394274, -73.99517306945903)"
191,Business,12/15/18,Inactive,7/26/16,Sidewalk Cafe,"KALE NYC, LLC",371,BROOME ST,,NEW YORK,10013,Manhattan,102.0,1.0,41.0,-73.99615796,40.72022246,"(40.72022245675827, -73.99615796319209)"
192,Business,12/15/20,Active,7/19/16,Sidewalk Cafe,SAPORI D'ITALIA OF NYC INC,105,MULBERRY ST,,NEW YORK,10013,Manhattan,102.0,1.0,41.0,-73.99840192,40.71742011,"(40.71742011026874, -73.99840192418509)"
193,Business,3/14/19,Active,7/5/16,Sidewalk Cafe,JOYFUL EATS TWO LLC,380,BROOME ST,,NEW YORK,10013,Manhattan,102.0,1.0,41.0,-73.99642852,40.72035147,"(40.720351469142805, -73.99642852225115)"
194,Business,9/15/20,Active,3/28/16,Sidewalk Cafe,SPRING SOHO INC,98,KENMARE ST,,NEW YORK,10012,Manhattan,102.0,1.0,41.0,-73.99708866,40.72133686,"(40.72133685614058, -73.99708866145748)"
195,Business,9/15/20,Active,1/14/16,Sidewalk Cafe,Elmer Kennedy LLC,86,KENMARE ST,,NEW YORK,10012,Manhattan,102.0,1.0,41.0,-73.99670626,40.721205100000006,"(40.72120509742076, -73.99670626166723)"
196,Business,4/15/17,Inactive,6/5/15,Sidewalk Cafe,GENUINE GRAND ST NYC LLC,191,GRAND ST,,NEW YORK,10013,Manhattan,102.0,1.0,41.0,-73.99718255,40.71927554,"(40.71927554446172, -73.99718254637112)"
197,Business,9/15/19,Inactive,6/4/15,Sidewalk Cafe,MARGHERITA CORPORATION,197,GRAND ST,,NEW YORK,10013,Manhattan,102.0,1.0,41.0,-73.99689395,40.71917947,"(40.71917947045838, -73.99689395124493)"
198,Business,12/15/17,Inactive,5/19/15,Sidewalk Cafe,390 BROOME RESTAURANT LLC,390,BROOME ST,,NEW YORK,10013,Manhattan,102.0,1.0,41.0,-73.99690832,40.72054362,"(40.720543616153485, -73.99690831792435)"
199,Business,4/15/19,Active,4/30/15,Sidewalk Cafe,"TAVA CAFE, LLC",202,MOTT ST,,NEW YORK,10012,Manhattan,102.0,1.0,41.0,-73.99554821,40.72138072,"(40.72138072302072, -73.99554821049932)"
200,Business,9/15/17,Inactive,4/11/15,Sidewalk Cafe,BOWERY RESTAURANT GROUP LLC,146,BOWERY,,NEW YORK,10013,Manhattan,102.0,1.0,41.0,-73.99451301,40.71919859,"(40.71919859492073, -73.99451300637143)"
201,Business,9/15/17,Inactive,4/8/15,Sidewalk Cafe,BUONA NOTTE INC,120,MULBERRY ST,,NEW YORK,10013,Manhattan,102.0,1.0,41.0,-73.9981494,40.71778516,"(40.717785159566695, -73.99814939642602)"
202,Business,4/15/17,Inactive,1/28/15,Sidewalk Cafe,SALS FAMILY PIZZA INC,384,BROOME ST,,NEW YORK,10013,Manhattan,102.0,1.0,41.0,-73.99657282,40.72040911,"(40.720409113467205, -73.99657282141827)"
203,Business,12/15/16,Inactive,8/6/14,Sidewalk Cafe,"LASSO NYC, INC",192,MOTT ST,,NEW YORK,10012,Manhattan,102.0,1.0,41.0,-73.99567089,40.72106234,"(40.72106233569299, -73.99567088988665)"
204,Business,12/15/16,Inactive,7/3/14,Sidewalk Cafe,BLUE BELL RESTAURANT LLC,153,ELIZABETH ST,40 KENMARE STREET,NEW YORK,10012,Manhattan,102.0,1.0,41.0,-73.99506486,40.72040906,"(40.72040905870429, -73.99506486284501)"
205,Business,4/15/20,Active,6/9/14,Sidewalk Cafe,TATANE CORP.,203,MOTT ST,,NEW YORK,10012,Manhattan,102.0,1.0,41.0,-73.99554821,40.72143836,"(40.721438362951226, -73.99554820664913)"
206,Business,4/15/16,Inactive,1/30/14,Sidewalk Cafe,98 KENMARE RESTAURANT GROUP LLC,98,KENMARE ST,,NEW YORK,10012,Manhattan,102.0,1.0,41.0,-73.99708866,40.72133686,"(40.72133685614058, -73.99708866145748)"
207,Business,4/15/17,Inactive,7/16/13,Sidewalk Cafe,14 SPRING STREET CAFE LLC,14,SPRING ST,,NEW YORK,10012,Manhattan,102.0,1.0,41.0,-73.99482308,40.72134776,"(40.7213477555961, -73.99482308365124)"
208,Business,4/15/15,Inactive,3/19/13,Sidewalk Cafe,FLORIO'S ENTERPRISES INC.,192,GRAND ST,,NEW YORK,10013,Manhattan,102.0,1.0,41.0,-73.99702743,40.7192426,"(40.719242603448414, -73.9970274255534)"
209,Business,4/15/19,Active,2/27/13,Sidewalk Cafe,PIACERE ENTERPRISES LLC,351,BROOME ST,,NEW YORK,10013,Manhattan,102.0,1.0,41.0,-73.99504326,40.71977502,"(40.719775018426766, -73.99504326466196)"
210,Business,3/3/19,Active,9/4/12,Sidewalk Cafe,161 MULBERRY RESTAURANT LLC,161,MULBERRY ST,,NEW YORK,10013,Manhattan,102.0,1.0,41.0,-73.99717531,40.71967079,"(40.71967078962582, -73.99717531462976)"
211,Business,4/15/20,Active,7/18/12,Sidewalk Cafe,JUICERIE LLC,19,KENMARE ST,,NEW YORK,10012,Manhattan,102.0,1.0,41.0,-73.99466441,40.720535299999995,"(40.72053529975445, -73.99466441397763)"
212,Business,4/15/20,Inactive,6/22/12,Sidewalk Cafe,"TRAVERTINE, LLC",19,KENMARE ST,,NEW YORK,10012,Manhattan,102.0,1.0,41.0,-73.99466441,40.720535299999995,"(40.72053529975445, -73.99466441397763)"
213,Business,12/15/19,Inactive,6/11/12,Sidewalk Cafe,132 MULBERRY INC,132,MULBERRY ST,,NEW YORK,10013,Manhattan,102.0,1.0,41.0,-73.99777781,40.71838626,"(40.718386255395664, -73.9977778127041)"
214,Business,4/15/16,Inactive,6/1/12,Sidewalk Cafe,TOBY'S PUBLIC HOUSE II LLC,86,KENMARE ST,,NEW YORK,10012,Manhattan,102.0,1.0,41.0,-73.99670626,40.721205100000006,"(40.72120509742076, -73.99670626166723)"
215,Business,5/15/19,Active,4/27/12,Sidewalk Cafe,343 BROOME STREET RESTAURANT INC,343,BROOME ST,,NEW YORK,10013,Manhattan,102.0,1.0,41.0,-73.99468974,40.71963502,"(40.719635019942864, -73.99468973865227)"
216,Business,12/15/18,Inactive,3/15/12,Sidewalk Cafe,18 FRONT INC.,18,SPRING ST,,NEW YORK,10012,Manhattan,102.0,1.0,41.0,-73.99497459999999,40.72141089,"(40.72141089175726, -73.99497459839357)"
217,Business,4/15/19,Active,6/7/11,Sidewalk Cafe,"ST. JUDE ENTERPRISES, LLC",174,MULBERRY ST,,NEW YORK,10013,Manhattan,102.0,1.0,41.0,-73.99692998,40.72023346,"(40.720233458968636, -73.99692997759354)"
218,Business,4/15/19,Active,4/25/11,Sidewalk Cafe,"ELI-LILLA, INC.",385,BROOME ST,,NEW YORK,10013,Manhattan,102.0,1.0,41.0,-73.99672073,40.72045029,"(40.720450289159444, -73.99672072920482)"
219,Business,9/15/19,Active,2/25/11,Sidewalk Cafe,"CHERRY LANE, INC.",349,BROOME ST,,NEW YORK,10013,Manhattan,102.0,1.0,41.0,-73.99495669,40.71973933,"(40.71973933279704, -73.99495668683231)"
220,Business,12/15/19,Active,2/23/11,Sidewalk Cafe,PSSP NY INC.,143,MULBERRY ST,,NEW YORK,10013,Manhattan,102.0,1.0,41.0,-73.99758659999999,40.71876777,"(40.71876777313678, -73.99758660420298)"
221,Business,9/15/19,Inactive,2/14/11,Sidewalk Cafe,SUD123 INCORPORATED,178,MULBERRY ST,,NEW YORK,10012,Manhattan,102.0,1.0,41.0,-73.99678566,40.720603999999994,"(40.72060399749035, -73.99678565784696)"
222,Business,12/15/16,Inactive,2/2/10,Sidewalk Cafe,151 MULBERRY ST. CORP.,151,MULBERRY ST,,NEW YORK,10013,Manhattan,102.0,1.0,41.0,-73.99745673,40.71902029,"(40.719020288217514, -73.99745672573498)"
223,Business,12/15/18,Inactive,2/1/10,Sidewalk Cafe,"P.J.'S OF LITTLE ITALY, INC.",138,MULBERRY ST,,NEW YORK,10013,Manhattan,102.0,1.0,41.0,-73.99766958,40.7185729,"(40.71857289691401, -73.99766958277081)"
224,Business,4/30/19,Active,1/19/10,Sidewalk Cafe,NEW RESTART INC.,145,MULBERRY ST,,NEW YORK,10013,Manhattan,102.0,1.0,41.0,-73.99755053,40.7188309,"(40.71883090184477, -73.99755052720725)"
225,Business,9/15/19,Active,12/31/07,Sidewalk Cafe,"LA MELA RISTORANTE ITALIANO, INC.",167,MULBERRY ST,,NEW YORK,10013,Manhattan,102.0,1.0,41.0,-73.99707790000001,40.71991782,"(40.719917815522344, -73.99707790085536)"
226,Business,4/15/19,Active,4/15/07,Sidewalk Cafe,"ASC, INC.",134,MULBERRY ST,,NEW YORK,10013,Manhattan,102.0,1.0,41.0,-73.99774174,40.71844938,"(40.71844938416683, -73.99774173609602)"
227,Business,4/15/15,Inactive,4/15/07,Sidewalk Cafe,BUONA NOTTE INC.,120,MULBERRY ST,,NEW YORK,10013,Manhattan,102.0,1.0,41.0,-73.9981494,40.71778516,"(40.717785159566695, -73.99814939642602)"
228,Business,4/15/17,Inactive,4/10/07,Sidewalk Cafe,"RED MULBERRY, LTD.",105,MULBERRY ST,,NEW YORK,10013,Manhattan,102.0,1.0,41.0,-73.99840192,40.71742011,"(40.71742011026874, -73.99840192418509)"
229,Business,4/15/19,Active,4/10/07,Sidewalk Cafe,164 MULBERRY ST. CORP.,164,MULBERRY ST,,NEW YORK,10013,Manhattan,102.0,1.0,41.0,-73.99711398,40.71977509,"(40.71977508895523, -73.9971139823339)"
230,Business,9/15/19,Active,3/8/07,Sidewalk Cafe,AKRAM RESTAURANT MANAGEMENT INC.,129,MULBERRY ST,,NEW YORK,10013,Manhattan,102.0,1.0,41.0,-73.99783553,40.71833136,"(40.71833136130082, -73.99783553363737)"
231,Business,9/15/19,Active,3/1/07,Sidewalk Cafe,"LUNELLA RISTORANTE, INC.",173,MULBERRY ST,,NEW YORK,10013,Manhattan,102.0,1.0,41.0,-73.99698049,40.72016484,"(40.7201648413282, -73.99698048635884)"
232,Business,3/15/19,Active,1/2/07,Sidewalk Cafe,"CAFFE VETRO, INC.",200,MOTT ST,,NEW YORK,10012,Manhattan,102.0,1.0,41.0,-73.99557347,40.72131759,"(40.7213175945462, -73.9955734679552)"
233,Business,4/30/19,Active,12/16/06,Sidewalk Cafe,"BUFFANNA, INC.",141,MULBERRY ST,,NEW YORK,10013,Manhattan,102.0,1.0,41.0,-73.99761907,40.71870464,"(40.718704644342345, -73.99761907366619)"
234,Business,12/15/18,Active,9/27/06,Sidewalk Cafe,PAESANO REST. CORP.,136,MULBERRY ST,,NEW YORK,10013,Manhattan,102.0,1.0,41.0,-73.99770566,40.71850977,"(40.7185097681665, -73.9977056595141)"
235,Business,5/19/19,Active,4/19/06,Sidewalk Cafe,"CAFFE SILVESTRI, INC.",191,HESTER ST,,NEW YORK,10013,Manhattan,102.0,1.0,41.0,-73.99780307,40.71812276,"(40.71812275894327, -73.99780307351799)"
236,Business,4/10/19,Active,3/30/06,Sidewalk Cafe,"CARMINE RESTAURANT, INC.",125,MULBERRY ST,,NEW YORK,10013,Manhattan,102.0,1.0,41.0,-73.99807003,40.71794984,"(40.717949843857795, -73.99807002854102)"
237,Business,12/15/16,Inactive,3/16/06,Sidewalk Cafe,IRIDIUM RESTAURANT CORP.,20,SPRING ST,,NEW YORK,10012,Manhattan,102.0,1.0,41.0,-73.99505036,40.72144109,"(40.72144108738357, -73.99505035597431)"
238,Business,9/15/20,Active,2/21/06,Sidewalk Cafe,GROTTA AZZURRA INN INC.,177,MULBERRY ST,,NEW YORK,10013,Manhattan,102.0,1.0,41.0,-73.99691554,40.72032953,"(40.72032952514841, -73.99691554295998)"
239,Business,12/15/18,Inactive,2/2/06,Sidewalk Cafe,174 GRAND STREET CORP.,174,GRAND ST,,NEW YORK,10013,Manhattan,102.0,1.0,41.0,-73.99794011,40.71955004,"(40.71955003644191, -73.99794011184672)"
240,Business,12/31/15,Inactive,4/11/05,Sidewalk Cafe,P. M. W. INC.,62,SPRING ST,,NEW YORK,10012,Manhattan,102.0,1.0,41.0,-73.99700204,40.72224262,"(40.72224262420917, -73.99700203815415)"
241,Business,9/1/17,Inactive,3/21/05,Sidewalk Cafe,IL COMMENDATORE RESTAURANT INC.,127,MULBERRY ST,,NEW YORK,10013,Manhattan,102.0,1.0,41.0,-73.99803756,40.71800199,"(40.71800199374638, -73.99803756019594)"
242,Business,12/15/19,Active,2/28/05,Sidewalk Cafe,"THE ORIGINAL VINCENT'S, ESTABLISHED 1904 INC.",119,MOTT ST,,NEW YORK,10013,Manhattan,102.0,1.0,41.0,-73.99721508,40.71771378,"(40.717713776998366, -73.9972150790855)"
243,Business,12/15/20,Active,2/10/05,Sidewalk Cafe,"JO-RACH, INC.",148,MULBERRY ST,,NEW YORK,10013,Manhattan,102.0,1.0,41.0,-73.99750002,40.71888854,"(40.718888540709514, -73.99750002045155)"
244,Business,12/15/19,Inactive,1/21/05,Sidewalk Cafe,ANGELO OF MULBERRY STREET INC.,146,MULBERRY ST,,NEW YORK,10013,Manhattan,102.0,1.0,41.0,-73.99753249,40.71882541,"(40.718825411940514, -73.99753249005562)"
245,Business,4/15/20,Inactive,10/24/18,Sidewalk Cafe,AINSPH LLC,64,3RD AVE,,NEW YORK,10003,Manhattan,103.0,2.0,42.0,-73.98868847,40.73123668,"(40.73123667508269, -73.98868847296802)"
246,Business,4/15/19,Active,8/3/17,Sidewalk Cafe,MARTINA EAST VILLAGE LLC,198,E 11TH ST,,NEW YORK,10003,Manhattan,103.0,2.0,42.0,-73.98852609999999,40.73127509,"(40.73127508558719, -73.98852609993658)"
247,Business,9/15/19,Active,6/7/13,Sidewalk Cafe,106 3RD AVE NYC INC.,106,3RD AVE,,NEW YORK,10003,Manhattan,103.0,2.0,42.0,-73.98761658,40.732710499999996,"(40.73271049805848, -73.9876165807211)"
248,Business,12/15/17,Inactive,12/12/11,Sidewalk Cafe,"BIZET, LLC",150,E 14TH ST,,NEW YORK,10003,Manhattan,103.0,2.0,42.0,-73.98808187,40.73366298,"(40.73366297686509, -73.98808187105558)"
249,Business,9/15/17,Inactive,2/12/07,Sidewalk Cafe,THIRD AVENUE RESTAURANT CORP.,64,3RD AVE,,NEW YORK,10003,Manhattan,103.0,2.0,42.0,-73.98868847,40.73123668,"(40.73123667508269, -73.98868847296802)"
250,Business,9/15/20,Active,5/2/18,Sidewalk Cafe,DEZ MULBERRY LLC,227,MULBERRY ST,,NEW YORK,10012,Manhattan,102.0,1.0,43.0,-73.99606403,40.72249511,"(40.72249511372269, -73.99606403277274)"
251,Business,4/15/18,Inactive,5/24/16,Sidewalk Cafe,ICON TWO LLC,218,BOWERY,,NEW YORK,10012,Manhattan,102.0,1.0,43.0,-73.99343771,40.72191311,"(40.721913105225035, -73.99343770681266)"
252,Business,9/15/18,Inactive,9/26/14,Sidewalk Cafe,PEARL & ASH LLC,220,BOWERY,,NEW YORK,10012,Manhattan,102.0,1.0,43.0,-73.99341606,40.721968,"(40.721967999157165, -73.99341605556273)"
253,Business,9/15/16,Inactive,7/3/14,Sidewalk Cafe,"267 LAFAYETTE GROCERY, LLC",267,LAFAYETTE ST,,NEW YORK,10012,Manhattan,102.0,1.0,43.0,-73.99655823,40.72357107,"(40.72357107469177, -73.99655822790352)"
254,Business,4/15/20,Active,6/9/14,Sidewalk Cafe,265 LAFAYETTE RISTORANTE LLC,263,LAFAYETTE ST,,NEW YORK,10012,Manhattan,102.0,1.0,43.0,-73.99662317,40.72349422,"(40.723494223396, -73.99662317089374)"
255,Business,12/15/20,Active,4/10/14,Sidewalk Cafe,ERJO COMPANY LLC,285,MOTT ST,,NEW YORK,10012,Manhattan,102.0,1.0,43.0,-73.99442601,40.72416386,"(40.72416385887304, -73.99442601133111)"
256,Business,1/28/19,Inactive,3/8/12,Sidewalk Cafe,LIGNORANTI LLC,24,PRINCE ST,,NEW YORK,10012,Manhattan,102.0,1.0,43.0,-73.99457403,40.72288755,"(40.72288755355798, -73.99457403339142)"
257,Business,3/19/19,Active,11/15/10,Sidewalk Cafe,MOTTSU CUISINE INC.,285,MOTT ST,,NEW YORK,10012,Manhattan,102.0,1.0,43.0,-73.99442601,40.72416386,"(40.72416385887304, -73.99442601133111)"
258,Business,4/15/16,Inactive,1/20/10,Sidewalk Cafe,FRIENDLY FOODS LLC,282,BOWERY,,NEW YORK,10012,Manhattan,102.0,1.0,43.0,-73.99275927,40.72374382,"(40.723743818198614, -73.99275927200354)"
259,Business,4/2/19,Active,2/19/08,Sidewalk Cafe,SENGUPTA FOOD SERVICES LLC,62,PRINCE ST,,NEW YORK,10012,Manhattan,102.0,1.0,43.0,-73.99661955,40.72373576,"(40.72373576197464, -73.99661955091854)"
260,Business,9/15/19,Active,7/10/07,Sidewalk Cafe,CANTALOUPE LLC,196,ELIZABETH ST,,NEW YORK,10012,Manhattan,102.0,1.0,43.0,-73.99448393,40.72184729,"(40.72184728589998, -73.99448392722852)"
261,Business,12/15/19,Inactive,2/23/07,Sidewalk Cafe,"247 DELI, LLC",265,LAFAYETTE ST,,NEW YORK,10012,Manhattan,102.0,1.0,43.0,-73.9965907,40.72353265,"(40.723532649048565, -73.99659069941735)"
262,Business,12/15/18,Inactive,12/12/06,Sidewalk Cafe,SERVICE CORP,20,PRINCE ST,,NEW YORK,10012,Manhattan,102.0,1.0,43.0,-73.99442252,40.72282442,"(40.72282441688227, -73.99442251567142)"
263,Business,12/15/19,Active,1/26/05,Sidewalk Cafe,"PEE WEE & TYSON, LTD.",242,MOTT ST,,NEW YORK,10012,Manhattan,102.0,1.0,43.0,-73.99479407,40.72326909,"(40.72326908507719, -73.99479407271285)"
264,Business,12/15/19,Active,1/21/05,Sidewalk Cafe,POMODORO RESTAURANT AND PIZZERIA INC.,51,SPRING ST,,NEW YORK,10012,Manhattan,102.0,1.0,43.0,-73.99649337,40.72205322,"(40.722053221516006, -73.99649336867282)"
265,Business,12/15/19,Active,12/5/13,Sidewalk Cafe,Hane Sushi Inc.,346,1ST AVE,,NEW YORK,10009,Manhattan,106.0,4.0,44.0,-73.97982216,40.73489697,"(40.734896965030565, -73.97982215813438)"
266,Business,9/15/17,Inactive,6/11/07,Sidewalk Cafe,JAMES-ZAC CORP.,282,1ST AVE,,NEW YORK,10009,Manhattan,106.0,4.0,44.0,-73.98107835,40.73316524,"(40.73316523856013, -73.98107835251861)"
267,Business,12/15/19,Active,8/3/17,Sidewalk Cafe,CENTRE HOWARD LLC,1,HOWARD ST,,NEW YORK,10013,Manhattan,102.0,1.0,45.0,-73.99933262,40.71894895,"(40.71894895062729, -73.99933261668744)"
268,Business,12/15/19,Active,5/10/17,Sidewalk Cafe,"CCFC 62 SPRING, LLC",62,SPRING ST,,NEW YORK,10012,Manhattan,102.0,1.0,45.0,-73.99725457,40.72234693,"(40.722346931322086, -73.99725456975291)"
269,Business,4/15/20,Active,8/8/16,Sidewalk Cafe,SUPERNATURAL WINE INC.,247,CENTRE ST,,NEW YORK,10013,Manhattan,102.0,1.0,45.0,-73.99806635,40.720357,"(40.72035699781756, -73.998066351281)"
270,Business,4/15/20,Active,4/1/16,Sidewalk Cafe,CORIANDER FACTORY INC.,222,LAFAYETTE ST,SOUTHSTORE,NEW YORK,10012,Manhattan,102.0,1.0,45.0,-73.99738807,40.72201207,"(40.72201207391356, -73.99738806634454)"
271,Business,9/15/20,Active,5/2/12,Sidewalk Cafe,MOLLY PICON LLC,224,LAFAYETTE ST,,NEW YORK,10012,Manhattan,102.0,1.0,45.0,-73.99734838,40.72205873,"(40.72205873389869, -73.99734838041321)"
272,Business,4/15/20,Active,4/19/10,Sidewalk Cafe,"212 LAFAYETTE ASSOCIATES, LLC",212,LAFAYETTE ST,,NEW YORK,10012,Manhattan,102.0,1.0,45.0,-73.9975901,40.72178152,"(40.72178151861244, -73.99759010269902)"
273,Business,12/15/18,Inactive,5/15/06,Sidewalk Cafe,"114 KENMARE ASSOCIATES, LLC",106,KENMARE ST,,NEW YORK,10012,Manhattan,102.0,1.0,45.0,-73.99745663,40.72146038,"(40.7214603789944, -73.99745663261893)"
274,Business,4/15/19,Active,4/26/13,Sidewalk Cafe,R&G SPRING LLC,196,SPRING ST,,NEW YORK,10012,Manhattan,102.0,3.0,47.0,-74.00315323,40.72513011,"(40.72513010522031, -74.00315322765603)"
275,Business,4/15/20,Active,6/11/09,Sidewalk Cafe,"LUPE'S EAST L.A. KITCHEN, INC.",110,AVENUE OF THE AMERICAS,,NEW YORK,10013,Manhattan,102.0,3.0,47.0,-74.00474417,40.72370552,"(40.72370552152473, -74.0047441713192)"
276,Business,5/31/19,Active,2/15/06,Sidewalk Cafe,"RESTAURANT VENTURES OF NY, INC.",200,SPRING ST,,NEW YORK,10012,Manhattan,102.0,3.0,47.0,-74.00326868,40.72518774,"(40.72518774190203, -74.00326868046588)"
277,Business,9/15/19,Active,3/16/05,Sidewalk Cafe,RDK RESTAURANT CORP.,180,SPRING ST,,NEW YORK,10012,Manhattan,102.0,1.0,47.0,-74.00252185,40.72482545,"(40.724825452722605, -74.00252184903371)"
278,Business,9/15/18,Inactive,8/25/16,Sidewalk Cafe,GONG CHA USA 7 NY LLC,209,E 14TH ST,,NEW YORK,10003,Manhattan,106.0,2.0,48.0,-73.98671084,40.73310564,"(40.733105641717245, -73.98671083808715)"
279,Business,4/15/20,Inactive,4/10/14,Sidewalk Cafe,H.K. SECOND AVE RESTAURANT INC.,249-251,E 14TH ST,,NEW YORK,10003,Manhattan,106.0,2.0,48.0,-73.98606863,40.73283384,"(40.732833835138074, -73.98606862751274)"
280,Business,12/15/19,Active,7/5/13,Sidewalk Cafe,243 E. 14TH CAFE INC.,243,E 14TH ST,,NEW YORK,10003,Manhattan,106.0,2.0,48.0,-73.98616604,40.73287502,"(40.732875018197106, -73.98616604114879)"
281,Business,12/15/16,Inactive,9/24/08,Sidewalk Cafe,179 THIRD AVENUE REST. INC.,179,3RD AVE,,NEW YORK,10003,Manhattan,106.0,2.0,48.0,-73.98594189,40.73497473,"(40.734974727813096, -73.98594188782276)"
282,Business,9/15/19,Active,4/11/07,Sidewalk Cafe,4N CORP,233,E 14TH ST,,NEW YORK,10003,Manhattan,106.0,2.0,48.0,-73.98632479,40.73294091,"(40.7329409112625, -73.9863247898048)"
283,Business,4/30/19,Active,9/16/06,Sidewalk Cafe,POSTO INC.,310,2ND AVE,,NEW YORK,10003,Manhattan,106.0,2.0,48.0,-73.98304079,40.73492219,"(40.73492218679726, -73.98304079177048)"
284,Business,4/15/19,Active,8/29/16,Sidewalk Cafe,NEW INDIAN FOODS LLC,195,SPRING ST,,NEW YORK,10012,Manhattan,102.0,3.0,49.0,-74.00315323,40.72515206,"(40.725152063278, -74.00315322869498)"
285,Business,12/15/17,Inactive,7/10/15,Sidewalk Cafe,86 ST AA LLC,203,SPRING ST,,NEW YORK,10012,Manhattan,102.0,3.0,49.0,-74.00348516,40.72531399,"(40.7253139943831, -74.00348515597356)"
286,Business,4/15/17,Inactive,4/16/07,Sidewalk Cafe,NILO INC.& VIOLA CONSULTING LLC,195,SPRING ST,,NEW YORK,10012,Manhattan,102.0,3.0,49.0,-74.00315323,40.72515206,"(40.725152063278, -74.00315322869498)"
287,Business,4/15/20,Active,7/11/18,Sidewalk Cafe,GRAMERCY FARMER & THE FISH LLC,245,PARK AVE S,,NEW YORK,10003,Manhattan,105.0,2.0,50.0,-73.98788622,40.73810397,"(40.73810396709749, -73.98788621690292)"
288,Business,5/15/20,Active,12/5/17,Sidewalk Cafe,BLASK GROUP LLC,184,3RD AVE,,NEW YORK,10003,Manhattan,106.0,2.0,50.0,-73.98586608,40.73511745,"(40.73511744571667, -73.9858660823038)"
289,Business,4/15/19,Active,7/13/17,Sidewalk Cafe,226 3RD RESTAURANT LLC,226,3RD AVE,,NEW YORK,10003,Manhattan,106.0,2.0,50.0,-73.98484821,40.7365144,"(40.73651439568057, -73.98484820916211)"
290,Business,3/15/19,Active,3/28/17,Sidewalk Cafe,BARFLY NYC INC,244,3RD AVE,,NEW YORK,10010,Manhattan,106.0,2.0,50.0,-73.98445476,40.73705231,"(40.73705231480245, -73.9844547649642)"
291,Business,2/15/19,Inactive,5/9/16,Sidewalk Cafe,PARK AVE CAKE LLC,249,PARK AVE S,,NEW YORK,10003,Manhattan,105.0,2.0,50.0,-73.98779959,40.73822198,"(40.73822198230224, -73.9877995909453)"
292,Business,9/5/17,Inactive,1/23/14,Sidewalk Cafe,"PARK AVENUE A, LLC",111,E 18TH ST,,NEW YORK,10003,Manhattan,105.0,2.0,50.0,-73.98783593,40.73683863,"(40.736838630859815, -73.98783592870407)"
293,Business,9/15/15,Inactive,5/31/13,Sidewalk Cafe,"OLIVES NY, LLC",201,PARK AVE S,,NEW YORK,10003,Manhattan,105.0,2.0,50.0,-73.98894375,40.73664387,"(40.73664386509432, -73.98894375393495)"
294,Business,4/15/17,Inactive,3/14/11,Sidewalk Cafe,DA FOLLIA LLC,226,3RD AVE,,NEW YORK,10003,Manhattan,106.0,2.0,50.0,-73.98484821,40.7365144,"(40.73651439568057, -73.98484820916211)"
295,Business,1/31/15,Inactive,6/18/10,Sidewalk Cafe,GRAMERCY RESTAURANT INC.,256,3RD AVE,,NEW YORK,10010,Manhattan,106.0,2.0,50.0,-73.98419848,40.73740361,"(40.737403608266376, -73.9841984811669)"
296,Business,12/15/18,Inactive,4/7/10,Sidewalk Cafe,"16TH STREET BBQ, LLC",114,E 16TH ST,,NEW YORK,10003,Manhattan,,,50.0,-77.51958437,40.11238534,"(40.11238533659802, -77.51958437167269)"
297,Business,12/15/18,Inactive,5/23/08,Sidewalk Cafe,LM RESTAURANT GROUP LLC,120,E 15TH ST,,NEW YORK,10003,Manhattan,106.0,2.0,50.0,-73.98805285,40.73454953,"(40.734549529354034, -73.98805284590843)"
298,Business,5/15/18,Inactive,1/27/06,Sidewalk Cafe,184 3RD AVENUE RESTAURANT CORP.,184,3RD AVE,,NEW YORK,10003,Manhattan,106.0,2.0,50.0,-73.98585887,40.73512019,"(40.73512018958413, -73.98585886501593)"
299,Business,12/15/16,Inactive,3/2/05,Sidewalk Cafe,"BARFLY, INC.",244,3RD AVE,,NEW YORK,10010,Manhattan,106.0,2.0,50.0,-73.98445476,40.73705231,"(40.73705231480245, -73.9844547649642)"
300,Business,8/15/17,Inactive,3/2/05,Sidewalk Cafe,FRIEND OF A FARMER CORP.,77,IRVING PL,,NEW YORK,10003,Manhattan,105.0,2.0,50.0,-73.98664874,40.73690712,"(40.73690711816209, -73.98664873625457)"
301,Business,11/21/18,Inactive,2/25/05,Sidewalk Cafe,"THE FUTABA CORPORATION, INC.",77,IRVING PL,,NEW YORK,10003,Manhattan,105.0,2.0,50.0,-73.98664874,40.73690712,"(40.73690711816209, -73.98664873625457)"
302,Business,4/15/19,Active,2/15/05,Sidewalk Cafe,"DMF GRAMERCY ENTERPRISES, INC.",129,E 18TH ST,,NEW YORK,10003,Manhattan,106.0,2.0,50.0,-73.98668493,40.73635817,"(40.73635817177231, -73.98668493044991)"
303,Business,9/15/15,Inactive,2/2/05,Sidewalk Cafe,DEPALINO RESTAURANT CORP.,235,PARK AVE S,,NEW YORK,10003,Manhattan,105.0,2.0,50.0,-73.98810278,40.73781305,"(40.73781304592055, -73.98810277971928)"
304,Business,12/15/19,Active,6/30/17,Sidewalk Cafe,CRAFT LLC,43,E 19TH ST,,NEW YORK,10003,Manhattan,105.0,2.0,52.0,-73.98933321,40.73823311,"(40.73823311357077, -73.9893332105403)"
305,Business,12/15/19,Active,6/14/17,Sidewalk Cafe,Barn Joo Union Square Inc,35,UNION SQ W,,NEW YORK,10003,Manhattan,105.0,2.0,52.0,-73.99060001,40.73676478,"(40.736764781321476, -73.99060000873202)"
306,Business,4/15/18,Inactive,4/19/16,Sidewalk Cafe,ME'KONG DELTA INCORPORATED,37,UNION SQ W,,NEW YORK,10003,Manhattan,105.0,2.0,52.0,-73.99054948,40.73683614,"(40.73683614075941, -73.99054948042335)"
307,Business,4/15/19,Active,3/9/15,Sidewalk Cafe,JUICE GENERATION 13 INC,28,E 18TH ST,,NEW YORK,10003,Manhattan,105.0,2.0,52.0,-73.98991066,40.73769519,"(40.73769519414158, -73.98991065543248)"
308,Business,12/15/15,Inactive,5/24/13,Sidewalk Cafe,DUKES EAST 19TH RESTAURANT LTD.,99,E 19TH ST,,NEW YORK,10003,Manhattan,105.0,2.0,52.0,-73.98850331,40.73787622,"(40.7378762159079, -73.98850331217982)"
309,Business,4/15/15,Inactive,4/11/11,Sidewalk Cafe,SCODITTI CONSULTING GROUP INC.,920,BROADWAY,,NEW YORK,10010,Manhattan,105.0,2.0,52.0,-73.98942319,40.73969059,"(40.739690585179844, -73.98942319221624)"
310,Business,3/15/15,Inactive,2/2/10,Sidewalk Cafe,COPEL 2007 INC.,39,E 19TH ST,,NEW YORK,10003,Manhattan,105.0,2.0,52.0,-73.98941620000001,40.73826879999999,"(40.73826880300715, -73.98941620086534)"
311,Business,11/19/15,Inactive,4/16/07,Sidewalk Cafe,R&A EAST 16TH ASSOCIATES,10,E 16TH ST,,NEW YORK,10003,Manhattan,105.0,2.0,52.0,-73.99226345,40.737157399999994,"(40.737157404729565, -73.9922634548858)"
312,Business,9/15/15,Inactive,2/26/07,Sidewalk Cafe,"MANNA KITCHEN, INC.",28,E 18TH ST,,NEW YORK,10003,Manhattan,105.0,2.0,52.0,-73.98991066,40.73769519,"(40.73769519414158, -73.98991065543248)"
313,Business,4/15/20,Active,3/16/06,Sidewalk Cafe,ABRUZZO DOCG INC.,15,E 18TH ST,,NEW YORK,10003,Manhattan,105.0,2.0,52.0,-73.99085602,40.73811796,"(40.73811796495327, -73.99085602240848)"
314,Business,7/1/17,Inactive,2/3/06,Sidewalk Cafe,UNION SQUARE CATERING FACILITY INC.,29,UNION SQ W,,NEW YORK,10003,Manhattan,105.0,2.0,52.0,-73.99083099,40.73643817,"(40.7364381743492, -73.9908309939616)"
315,Business,12/15/17,Inactive,3/29/05,Sidewalk Cafe,HARU GRAMERCY PARK CORP.,220,PARK AVE S,,NEW YORK,10003,Manhattan,105.0,2.0,52.0,-73.98866583,40.73706104,"(40.737061040503626, -73.98866583344436)"
316,Business,9/15/19,Active,3/2/05,Sidewalk Cafe,"A.B.C. HOME FURNISHINGS, INC.",38,E 19TH ST,,NEW YORK,10003,Manhattan,105.0,2.0,52.0,-73.98945229,40.73826606,"(40.73826606156557, -73.9894522865335)"
317,Business,9/15/17,Inactive,2/7/05,Sidewalk Cafe,"A.T. WEST 16TH ENTERPRISES,LTD.",9,E 16TH ST,,NEW YORK,10003,Manhattan,105.0,2.0,52.0,-73.99225263,40.73717113,"(40.73717112776508, -73.99225262790051)"
318,Business,4/15/20,Active,3/23/06,Sidewalk Cafe,PORTO RESTAURANT INC.,574,AVENUE OF THE AMERICAS,,NEW YORK,10011,Manhattan,105.0,3.0,54.0,-73.99577078,40.73880993,"(40.738809927859144, -73.99577077623545)"
319,Business,3/19/19,Active,2/16/16,Sidewalk Cafe,MADISON PARK ACQUISITIONS LLC,19,E 26TH ST,,NEW YORK,10010,Manhattan,105.0,2.0,56.0,-73.98722852,40.74304994,"(40.74304993802841, -73.98722851922102)"
320,Business,9/15/20,Active,8/13/14,Sidewalk Cafe,OBIKA NY MADISON LLC,928,BROADWAY,,NEW YORK,10010,Manhattan,105.0,2.0,56.0,-73.98949168,40.74016543,"(40.74016543348031, -73.98949168073258)"
321,Business,12/15/19,Inactive,6/12/13,Sidewalk Cafe,"921 BROADWAY BAKERY, LLC",921,Broadway,,New York,10010,Manhattan,105.0,2.0,56.0,-73.98956388,40.73997605,"(40.73997605218748, -73.989563882919)"
322,Business,9/15/19,Active,1/30/13,Sidewalk Cafe,"PQ 933 BROADWAY, INC.",929,BROADWAY,,NEW YORK,10010,Manhattan,,,56.0,-77.51958437,40.11238534,"(40.11238533659802, -77.51958437167269)"
323,Business,4/15/15,Inactive,6/1/11,Sidewalk Cafe,"SDNY 19 MAD PARK, LLC",19,E 26TH ST,,NEW YORK,10010,Manhattan,105.0,3.0,56.0,-73.98722852,40.74304994,"(40.74304993802841, -73.98722851922102)"
324,Business,12/15/18,Inactive,6/8/10,Sidewalk Cafe,"ARGO TEA, INC",949,BROADWAY,,NEW YORK,10010,Manhattan,105.0,2.0,56.0,-73.98926782,40.74097511,"(40.7409751144926, -73.98926781548998)"
325,Business,12/15/19,Active,5/3/17,Sidewalk Cafe,PRET A MANGER USA LIMITED,1,ASTOR PL,,NEW YORK,10003,Manhattan,102.0,2.0,57.0,-73.9926287,40.73005401,"(40.730054005252036, -73.99262869551946)"
326,Business,4/15/16,Inactive,6/20/14,Sidewalk Cafe,"TANGO HOUSE, INC",428,LAFAYETTE ST,,NEW YORK,10003,Manhattan,102.0,2.0,57.0,-73.99215255,40.72903841,"(40.72903841422563, -73.99215254874893)"
327,Business,6/27/19,Active,1/24/06,Sidewalk Cafe,STARBUCKS CORPORATION,454,LAFAYETTE ST,,NEW YORK,10003,Manhattan,102.0,2.0,57.0,-73.99126485,40.729955100000005,"(40.72995509867461, -73.99126485478797)"
328,Business,12/15/20,Active,5/23/18,Sidewalk Cafe,ITALIENNE LLC,19,W 24TH ST,,NEW YORK,10010,Manhattan,105.0,3.0,58.0,-73.99009395,40.74263302,"(40.74263301805639, -73.99009395442023)"
329,Business,4/15/20,Active,7/5/16,Sidewalk Cafe,LUKES LOBSTER XIX LLC,5,W 25TH ST,,NEW YORK,10010,Manhattan,105.0,3.0,58.0,-73.98955616,40.74321211,"(40.74321211289257, -73.98955615843465)"
330,Business,3/18/19,Active,6/8/16,Sidewalk Cafe,IHI-NY LLC,236,5TH AVE,,NEW YORK,10001,Manhattan,105.0,2.0,58.0,-73.98763609,40.74423297,"(40.744232969836844, -73.98763609208763)"
331,Business,12/15/18,Inactive,6/1/16,Sidewalk Cafe,BEERCO RESTAURANT LLC,220,5TH AVE,,NEW YORK,10001,Manhattan,105.0,2.0,58.0,-73.98809092,40.74360996,"(40.74360995949514, -73.98809091810728)"
332,Business,12/15/19,Active,8/3/15,Sidewalk Cafe,TARENTUM LTD,4,W 28TH ST,,NEW YORK,10001,Manhattan,105.0,2.0,58.0,-73.98764320000001,40.744817600000005,"(40.74481760231797, -73.9876432013469)"
333,Business,4/15/19,Active,7/2/15,Sidewalk Cafe,LPB1 LLC,1133,BROADWAY,,NEW YORK,10010,Manhattan,105.0,3.0,58.0,-73.98907253,40.74352222,"(40.74352222480504, -73.98907252955563)"
334,Business,4/15/19,Active,8/23/13,Sidewalk Cafe,PRET A MANAGER USA LIMITED,24,W 23RD ST,,NEW YORK,10010,Manhattan,105.0,3.0,58.0,-73.99058123,40.74196334,"(40.74196333976508, -73.99058123166442)"
335,Business,4/15/19,Active,2/15/13,Sidewalk Cafe,FOYER LLC,50,W 22ND ST,,NEW YORK,10010,Manhattan,105.0,3.0,58.0,-73.99168194,40.74154897,"(40.741548967135216, -73.99168194406917)"
336,Business,9/15/15,Inactive,2/8/13,Sidewalk Cafe,JUNOON NYC LLC,27,W 24TH ST,,NEW YORK,10010,Manhattan,105.0,3.0,58.0,-73.99028882,40.74271538,"(40.742715377168544, -73.9902888154442)"
337,Business,9/15/18,Inactive,6/11/12,Sidewalk Cafe,"43 WEST 24TH ST. REST., LLC",43,W 24TH ST,,NEW YORK,10010,Manhattan,105.0,3.0,58.0,-73.99063524,40.74286362,"(40.742863622385165, -73.99063523597474)"
338,Business,4/15/19,Active,3/29/11,Sidewalk Cafe,"TAPPO, INC.",49,W 24TH ST,,NEW YORK,10010,Manhattan,105.0,3.0,58.0,-73.99076875,40.74291853,"(40.74291852817367, -73.99076875294145)"
339,Business,12/15/19,Inactive,5/11/07,Sidewalk Cafe,"MARKT ON LADIES' MILE, LLC",676,AVENUE OF THE AMERICAS,,NEW YORK,10010,Manhattan,105.0,3.0,58.0,-73.99362701,40.74175495,"(40.74175494751263, -73.99362701423883)"
340,Business,9/15/19,Inactive,2/5/07,Sidewalk Cafe,HILL COUNTRY NEW YORK LLC,30,W 26TH ST,,NEW YORK,10010,Manhattan,105.0,3.0,58.0,-73.98976172,40.74410143,"(40.744101430407945, -73.98976172286729)"
341,Business,9/15/19,Active,4/23/15,Sidewalk Cafe,YERINA RESTAURANT CORP.,21,E 9TH ST,,NEW YORK,10003,Manhattan,102.0,2.0,59.0,-73.99472481,40.73235422,"(40.73235422499571, -73.99472480706936)"
342,Business,12/15/19,Inactive,4/2/14,Sidewalk Cafe,"LUCIFER RESTAURANT, LLC",401,E 20TH ST,,NEW YORK,10010,Manhattan,106.0,4.0,60.0,-73.97972114,40.73485578,"(40.734855775981266, -73.97972113712505)"
343,Business,4/15/18,Inactive,2/21/08,Sidewalk Cafe,"AVENTURA RESTAURANT, LLC",348,1ST AVE,,NEW YORK,10010,Manhattan,106.0,4.0,60.0,-73.97972829999999,40.73502595,"(40.735025951965284, -73.97972830202953)"
344,Business,9/15/20,Inactive,7/2/18,Sidewalk Cafe,AOA786 LLC,820,BROADWAY,,NEW YORK,10003,Manhattan,102.0,2.0,61.0,-73.99115259999999,40.73297981,"(40.73297980994792, -73.99115260293036)"
345,Business,5/21/19,Active,12/8/16,Sidewalk Cafe,841 BROADWAY BAKERY LLC,841,BROADWAY,,NEW YORK,10003,Manhattan,102.0,2.0,61.0,-73.99089625,40.73424238,"(40.73424237682348, -73.99089624560918)"
346,Business,9/15/19,Active,10/18/16,Sidewalk Cafe,UNION SQ 4TH F & B MANAGEMENT LLC,132,4TH AVE,,NEW YORK,10003,Manhattan,102.0,2.0,61.0,-73.9899402,40.73323223,"(40.73323222780517, -73.98994019719328)"
347,Business,4/15/19,Active,7/8/16,Sidewalk Cafe,UNION SQ 4TH F & B MANAGEMENT LLC,132,4TH AVE,,NEW YORK,10003,Manhattan,102.0,2.0,61.0,-73.9899402,40.73323223,"(40.73323222780517, -73.98994019719328)"
348,Business,4/15/20,Active,6/1/16,Sidewalk Cafe,"VAP UNION SQUARE, LLC",113,UNIVERSITY PL,,NEW YORK,10003,Manhattan,102.0,2.0,61.0,-73.99239007,40.73437423,"(40.734374233409774, -73.99239006896815)"
349,Business,9/15/17,Inactive,7/24/15,Sidewalk Cafe,HHLP UNION SQUARE ASSOCIATES LLC,132,4TH AVE,,NEW YORK,10003,Manhattan,102.0,2.0,61.0,-73.9899402,40.73323223,"(40.73323222780517, -73.98994019719328)"
350,Business,12/15/16,Inactive,3/26/14,Sidewalk Cafe,132 4TH AVENUE RESTAURANT LLC,132,4TH AVE,,NEW YORK,10003,Manhattan,102.0,2.0,61.0,-73.9899402,40.73323223,"(40.73323222780517, -73.98994019719328)"
351,Business,4/15/18,Inactive,2/27/14,Sidewalk Cafe,815 BROADWAY NYC LLC,815,BROADWAY,,NEW YORK,10003,Manhattan,102.0,2.0,61.0,-73.99117425,40.73298256,"(40.73298255636348, -73.99117425198853)"
352,Business,12/15/19,Active,6/20/13,Sidewalk Cafe,P12 NEW YORK LLC,48,E 12TH ST,,NEW YORK,10003,Manhattan,102.0,2.0,61.0,-73.99179841,40.73349313,"(40.73349312678599, -73.99179841417063)"
353,Business,4/15/19,Active,4/15/13,Sidewalk Cafe,PRET A MANGER (USA) LIMITED,821,BROADWAY,,NEW YORK,10003,Manhattan,102.0,2.0,61.0,-73.99126441,40.73338604,"(40.73338604210482, -73.99126440502111)"
354,Business,5/15/19,Active,11/7/11,Sidewalk Cafe,120 U REST. LLC,94,UNIVERSITY PL,,NEW YORK,10003,Manhattan,102.0,2.0,61.0,-73.99295664,40.73374847,"(40.73374846557672, -73.9929566401756)"
355,Business,9/15/19,Inactive,1/18/11,Sidewalk Cafe,"PQ UNION SQUARE, INC.",801,BROADWAY,,NEW YORK,10003,Manhattan,102.0,2.0,61.0,-73.99126451,40.73256536,"(40.73256536058412, -73.99126451260956)"
356,Business,4/15/16,Inactive,3/17/06,Sidewalk Cafe,"COSI, INC.",841,BROADWAY,,NEW YORK,10003,Manhattan,102.0,2.0,61.0,-73.99089625,40.73424238,"(40.73424237682348, -73.99089624560918)"
357,Business,12/15/20,Active,6/28/18,Sidewalk Cafe,KUBBEH LLC,464,AVE OF THE AMERICAS,AKA 75 W 11TH ST,NEW YORK,10011,Manhattan,102.0,3.0,63.0,-73.99816334,40.73552727,"(40.735527266681885, -73.99816333716504)"
358,Business,12/15/20,Active,7/3/14,Sidewalk Cafe,24 5TH AVE LLC,24,5TH AVE,,NEW YORK,10011,Manhattan,102.0,3.0,63.0,-73.99600929,40.73303223,"(40.73303223100415, -73.99600928676844)"
359,Business,4/15/20,Active,1/20/09,Sidewalk Cafe,GAT 35 CORP.,35,W 13TH ST,,NEW YORK,10011,Manhattan,102.0,3.0,63.0,-73.99538126,40.73585381,"(40.73585381434004, -73.99538125746346)"
360,Business,3/15/19,Active,3/2/06,Sidewalk Cafe,ZESTFUL MANAGEMENT CORP.,502,AVENUE OF THE AMERICAS,6TH AVE,NEW YORK,10011,Manhattan,102.0,3.0,63.0,-73.99745967,40.73648792,"(40.73648791689769, -73.99745966743053)"
361,Business,9/15/19,Active,2/23/05,Sidewalk Cafe,"FRENCH ROAST, INC.",78,W 11TH ST,,NEW YORK,10011,Manhattan,102.0,3.0,63.0,-73.99732622,40.73498104,"(40.734981044361966, -73.99732621610171)"
362,Business,9/15/20,Inactive,10/24/18,Sidewalk Cafe,THIRD AVE FOOD CORP,283,3RD AVE,,NEW YORK,10010,Manhattan,106.0,2.0,64.0,-73.98354874,40.73826262,"(40.738262624801926, -73.98354874328433)"
363,Business,5/15/17,Inactive,5/8/15,Sidewalk Cafe,EAST SIDE DD 113 LLC,243,3RD AVE,,NEW YORK,10003,Manhattan,106.0,2.0,64.0,-73.98456306,40.73687118,"(40.73687117568601, -73.98456306065759)"
364,Business,12/28/18,Inactive,1/17/12,Sidewalk Cafe,307 THIRD AVENUE EAST VENTURES LLC,307,3RD AVE,,NEW YORK,10010,Manhattan,106.0,2.0,64.0,-73.98295313,40.73908322,"(40.73908321906709, -73.9829531270222)"
365,Business,4/15/15,Inactive,6/2/09,Sidewalk Cafe,"DEFONTE'S OF NEW YORK, INC.",261,3RD AVE,,NEW YORK,10010,Manhattan,106.0,2.0,64.0,-73.98413713,40.73745301,"(40.73745300537835, -73.98413712530464)"
366,Business,2/28/15,Inactive,5/15/08,Sidewalk Cafe,EAST SIDE DD 113 LLC,243,3RD AVE,,NEW YORK,10003,Manhattan,106.0,2.0,64.0,-73.98456306,40.73687118,"(40.73687117568601, -73.98456306065759)"
367,Business,12/15/20,Active,7/26/18,Sidewalk Cafe,ALTA CUCINA 2 LLC,260,6TH AVE,,NEW YORK,10014,Manhattan,102.0,3.0,65.0,-74.00246789,40.72910178,"(40.72910178456737, -74.00246789046147)"
368,Business,12/15/19,Active,6/28/18,Sidewalk Cafe,LOW OVERRUN LLC,490-494,LAGUARDIA PL,,NEW YORK,10012,Manhattan,102.0,1.0,65.0,-73.99960674,40.72731223,"(40.727312229388254, -73.99960673561911)"
369,Business,12/15/19,Inactive,12/11/17,Sidewalk Cafe,BAR GIACOSA CORP.,270,6TH AVE,,NEW YORK,10014,Manhattan,102.0,3.0,65.0,-74.00232719,40.729384499999995,"(40.72938449733156, -74.00232718728188)"
370,Business,9/15/19,Active,8/3/17,Sidewalk Cafe,151 BLEECKER LLC,151,BLEECKER ST,,NEW YORK,10012,Manhattan,102.0,1.0,65.0,-73.9994588,40.72832504,"(40.72832504382953, -73.99945880225974)"
371,Business,9/15/20,Active,3/2/17,Sidewalk Cafe,125 HOSPITALITY LLC,125,MACDOUGAL ST,,NEW YORK,10012,Manhattan,102.0,1.0,65.0,-74.00005412,40.73052634,"(40.73052633908442, -74.00005412156183)"
372,Business,4/30/19,Active,8/23/16,Sidewalk Cafe,E2 185 BLEECKER LLC,185,BLEECKER ST,,NEW YORK,10012,Manhattan,102.0,1.0,65.0,-74.00100664,40.72908534,"(40.7290853380792, -74.00100663928178)"
373,Business,2/28/19,Active,6/13/16,Sidewalk Cafe,NJJMJ INC,93,MACDOUGAL ST,,NEW YORK,10012,Manhattan,102.0,1.0,65.0,-74.00105355,40.72934609,"(40.72934608944965, -74.00105354774354)"
374,Business,4/15/18,Inactive,3/28/16,Sidewalk Cafe,506 La Guardia Place Restaurant LLC,506,LAGUARDIA PL,,NEW YORK,10012,Manhattan,102.0,1.0,65.0,-73.99935418,40.72761141,"(40.727611406690194, -73.99935417761272)"
375,Business,4/15/17,Inactive,10/14/15,Sidewalk Cafe,BAR GIACOSA CORP.,270,6TH AVE,,NEW YORK,10014,Manhattan,102.0,3.0,65.0,-74.00232719,40.729384499999995,"(40.72938449733156, -74.00232718728188)"
376,Business,4/15/19,Active,7/24/15,Sidewalk Cafe,"SOUTH VILLAGE HOSPITALITY GROUP, LLC",157,BLEECKER ST,,NEW YORK,10012,Manhattan,102.0,1.0,65.0,-73.99986290000001,40.72852267,"(40.728522667450505, -73.99986289616588)"
377,Business,9/15/19,Active,7/10/15,Sidewalk Cafe,JL SOLO INC,206,SULLIVAN ST,,NEW YORK,10012,Manhattan,102.0,1.0,65.0,-74.00019123,40.72909907,"(40.72909906609917, -74.00019122542267)"
378,Business,4/15/19,Active,5/8/15,Sidewalk Cafe,E2 185 BLEECKER LLC,185,BLEECKER ST,,NEW YORK,10012,Manhattan,102.0,1.0,65.0,-74.00100664,40.72908534,"(40.7290853380792, -74.00100663928178)"
379,Business,3/15/19,Active,4/21/15,Sidewalk Cafe,ONE MELON LLC,89,MACDOUGAL ST,,NEW YORK,10012,Manhattan,102.0,3.0,65.0,-74.00133497,40.72901123,"(40.729011226335615, -74.00133496817217)"
380,Business,12/15/16,Inactive,5/19/14,Sidewalk Cafe,PPF HOLDINGS LLC,89,MACDOUGAL ST,,NEW YORK,10012,Manhattan,102.0,3.0,65.0,-74.00133497,40.72901123,"(40.729011226335615, -74.00133496817217)"
381,Business,9/15/20,Active,3/13/14,Sidewalk Cafe,CLAUDISAL REST. CORP.,206,THOMPSON ST,,NEW YORK,10012,Manhattan,102.0,1.0,65.0,-73.99935056,40.7287944,"(40.72879439653422, -73.99935055813754)"
382,Business,5/15/19,Active,3/12/13,Sidewalk Cafe,"SHIP WRECKED BAR AND GRILL, INC.",149,BLEECKER ST,,NEW YORK,10012,Manhattan,102.0,1.0,65.0,-73.99935778,40.72827564,"(40.72827563770185, -73.9993577791577)"
383,Business,12/15/19,Inactive,12/31/12,Sidewalk Cafe,"SOH PEACE, INC.",87,MACDOUGAL ST,,NEW YORK,10012,Manhattan,102.0,3.0,65.0,-74.00137466,40.72896457,"(40.72896456502055, -74.0013746554526)"
384,Business,9/15/20,Active,5/29/12,Sidewalk Cafe,DESSYN BAKERY CORP.,552,LAGUARDIA PL,,NEW YORK,10012,Manhattan,102.0,1.0,65.0,-73.99825733,40.72889045,"(40.72889045163257, -73.99825732849034)"
385,Business,4/15/19,Active,2/24/11,Sidewalk Cafe,GMT NEW YORK LLC,142,BLEECKER ST,,NEW YORK,10012,Manhattan,102.0,1.0,65.0,-73.99906914,40.7281137,"(40.72811369512217, -73.99906914283899)"
386,Business,4/15/20,Active,5/24/10,Sidewalk Cafe,MENDARED LLC,510,LAGUARDIA PL,,NEW YORK,10012,Manhattan,102.0,1.0,65.0,-73.99926759,40.72771022,"(40.72771021739767, -73.99926758581557)"
387,Business,9/15/16,Inactive,4/20/10,Sidewalk Cafe,151 BLEECKER LLC,151,BLEECKER ST,,NEW YORK,10012,Manhattan,102.0,1.0,65.0,-73.9994588,40.72832504,"(40.72832504382953, -73.99945880225974)"
388,Business,5/15/19,Active,3/30/10,Sidewalk Cafe,151 BLEECKER LLC,151,BLEECKER ST,,NEW YORK,10012,Manhattan,102.0,1.0,65.0,-73.9994588,40.72832504,"(40.72832504382953, -73.99945880225974)"
389,Business,4/15/15,Inactive,4/9/09,Sidewalk Cafe,VILLAGE CANTINA CORP.,170,BLEECKER ST,,NEW YORK,10012,Manhattan,102.0,3.0,65.0,-74.00055563,40.7288438,"(40.72884380263013, -74.0005556340054)"
390,Business,9/15/16,Inactive,3/19/09,Sidewalk Cafe,PASTA BISTRO GRILL INC,93,MACDOUGAL ST,,NEW YORK,10012,Manhattan,102.0,3.0,65.0,-74.00105355,40.72934609,"(40.72934608944965, -74.00105354774354)"
391,Business,4/15/18,Inactive,12/1/08,Sidewalk Cafe,"GROOVE ENTERPRISES,INC.",125,MACDOUGAL ST,,NEW YORK,10012,Manhattan,102.0,3.0,65.0,-74.00005412,40.73052634,"(40.73052633908442, -74.00005412156183)"
392,Business,4/10/19,Active,3/18/08,Sidewalk Cafe,"HALF PINT ON THOMPSON, LLC",234,THOMPSON ST,,NEW YORK,10012,Manhattan,102.0,1.0,65.0,-73.99879491,40.7294449,"(40.729444899165664, -73.99879491278043)"
393,Business,4/15/19,Inactive,4/16/07,Sidewalk Cafe,ANDIKIANA CORP.,490,LAGUARDIA PL,,NEW YORK,10012,Manhattan,102.0,1.0,65.0,-73.99969333,40.72721067,"(40.72721067366392, -73.99969332640885)"
394,Business,4/15/17,Inactive,4/10/07,Sidewalk Cafe,DA SILVANO CORP.,260,AVENUE OF THE AMERICAS,,NEW YORK,10014,Manhattan,102.0,3.0,65.0,-74.00246789,40.72910178,"(40.72910178456737, -74.00246789046147)"
395,Business,6/30/18,Inactive,3/1/07,Sidewalk Cafe,BLL RESTAURANT CORP.,208,THOMPSON ST,,NEW YORK,10012,Manhattan,102.0,1.0,65.0,-73.99931087,40.72884106,"(40.728841057152735, -73.99931086954118)"
396,Business,9/15/18,Inactive,9/16/06,Sidewalk Cafe,FEENJON CORPORATION,103,MACDOUGAL ST,,NEW YORK,10012,Manhattan,,,65.0,-77.51958437,40.11238534,"(40.11238533659802, -77.51958437167269)"
397,Business,4/15/20,Active,4/13/06,Sidewalk Cafe,DYNAMIC MUSIC CORP.,117,MACDOUGAL ST,,NEW YORK,10012,Manhattan,102.0,3.0,65.0,-74.00038606,40.73013658,"(40.730136583202416, -74.00038606488296)"
398,Business,4/15/16,Inactive,2/24/06,Sidewalk Cafe,"LU-ANN BAKERY SHOP, INC.",506,LAGUARDIA PL,,NEW YORK,10012,Manhattan,102.0,1.0,65.0,-73.99935418,40.72761141,"(40.727611406690194, -73.99935417761272)"
399,Business,4/15/20,Active,2/1/06,Sidewalk Cafe,BAR GIACOSA CORP.,268,AVENUE OF THE AMERICAS,,NEW YORK,10014,Manhattan,102.0,3.0,65.0,-74.00235605,40.7293296,"(40.729329601631974, -74.00235604967938)"
400,Business,9/15/19,Inactive,5/13/05,Sidewalk Cafe,"TRE-GIOVANI, INC.",548,LAGUARDIA PL,,NEW YORK,10012,Manhattan,102.0,1.0,65.0,-73.99832588,40.72881085,"(40.72881085473081, -73.99832588278541)"
401,Business,12/15/19,Active,2/25/05,Sidewalk Cafe,"CAVALLACCI, FABRIZIO",119,MACDOUGAL ST,,NEW YORK,10012,Manhattan,102.0,3.0,65.0,-74.00031751,40.73021344,"(40.73021343656091, -74.00031751167181)"
402,Business,7/2/15,Inactive,1/7/05,Sidewalk Cafe,"CAFFE DANTE, INC.",81,MACDOUGAL ST,,NEW YORK,10012,Manhattan,102.0,3.0,65.0,-74.00149372,40.72882458,"(40.7288245809915, -74.00149371696034)"
403,Business,9/15/16,Inactive,5/1/03,Sidewalk Cafe,"172 BLEEKER ST. REST., INC.",190,SULLIVAN ST,,NEW YORK,10012,Manhattan,102.0,3.0,65.0,-74.00072881,40.72846228,"(40.72846228059458, -74.00072881445783)"
404,Business,9/15/18,Inactive,4/29/03,Sidewalk Cafe,"172 BLEEKER ST. REST., INC.",172,BLEECKER ST,,NEW YORK,10012,Manhattan,102.0,3.0,65.0,-74.00062058,40.72887674,"(40.72887673936824, -74.00062057854652)"
405,Business,4/15/20,Active,6/5/18,Sidewalk Cafe,AWOL VENTURES LLC,337,3RD AVE,,NEW YORK,10010,Manhattan,106.0,2.0,66.0,-73.98230696,40.73996968,"(40.73996967644407, -73.98230695802953)"
406,Business,4/15/19,Active,7/13/17,Sidewalk Cafe,CRC HOSPITALITY GROUP LLC,200,E 27TH ST,,NEW YORK,10016,Manhattan,106.0,2.0,66.0,-73.98114462,40.7412705,"(40.74127050417237, -73.98114461567869)"
407,Business,12/15/19,Active,5/3/17,Sidewalk Cafe,EAST DROGHEDA INC,375,3RD AVE,,NEW YORK,10016,Manhattan,106.0,2.0,66.0,-73.98123479,40.74143795,"(40.74143794871772, -73.98123478566926)"
408,Business,5/15/20,Active,3/21/17,Sidewalk Cafe,EAST DROGHEDA INC,375,3RD AVE,,NEW YORK,10016,Manhattan,106.0,2.0,66.0,-73.98123479,40.74143795,"(40.74143794871772, -73.98123478566926)"
409,Business,4/15/19,Active,8/13/15,Sidewalk Cafe,Masa 8 LLC,323,3RD AVE,,NEW YORK,10010,Manhattan,106.0,2.0,66.0,-73.98255243,40.73963485,"(40.73963485418619, -73.98255243156838)"
410,Business,7/19/17,Inactive,7/2/15,Sidewalk Cafe,411 REST CORP,411,3RD AVE,,NEW YORK,10016,Manhattan,106.0,2.0,66.0,-73.98050554,40.74244241,"(40.74244240641559, -73.9805055353544)"
411,Business,10/23/18,Inactive,9/19/08,Sidewalk Cafe,3RD AVE 26 REST. CORP.,359,3RD AVE,,NEW YORK,10016,Manhattan,106.0,2.0,66.0,-73.98168604,40.74082045,"(40.740820452339314, -73.98168604229465)"
412,Business,5/15/17,Inactive,5/16/07,Sidewalk Cafe,"MEXICO LINDO RESTAURANT, INC.",459,2ND AVE,,NEW YORK,10010,Manhattan,106.0,2.0,66.0,-73.97962225,40.73965084,"(40.73965084150079, -73.97962224554045)"
413,Business,12/15/20,Active,4/18/18,Sidewalk Cafe,CHICK & CO LLC,26,CARMINE ST,,NEW YORK,10014,Manhattan,102.0,3.0,67.0,-74.00281070000001,40.73020791,"(40.730207913184806, -74.00281069968041)"
414,Business,5/15/20,Active,8/22/17,Sidewalk Cafe,"SANGE REST, INC",168,W 4TH ST,,NEW YORK,10014,Manhattan,102.0,3.0,67.0,-74.00144327,40.73206339,"(40.73206339279665, -74.00144327493952)"
415,Business,9/15/19,Inactive,8/3/17,Sidewalk Cafe,MICBRUARD LLC,13,CARMINE ST,,NEW YORK,10014,Manhattan,102.0,3.0,67.0,-74.00227671,40.73039457,"(40.73039456833966, -74.00227670919908)"
416,Business,12/15/19,Inactive,5/24/17,Sidewalk Cafe,"FIRST, LLC",57,7TH AVE S,,NEW YORK,10014,Manhattan,102.0,3.0,67.0,-74.00398341,40.73153085,"(40.73153085052944, -74.00398340699935)"
417,Business,4/30/19,Active,7/28/16,Sidewalk Cafe,"JOSAN & JOSAN, INC.",73,7TH AVE S,,NEW YORK,10014,Manhattan,102.0,3.0,67.0,-74.00350356,40.73229391,"(40.73229390792666, -74.00350356203653)"
418,Business,3/15/19,Active,6/1/16,Sidewalk Cafe,"BL 30 CARMINE NY, LLC",30,CARMINE ST,,NEW YORK,10014,Manhattan,102.0,3.0,67.0,-74.00293337,40.73016948,"(40.73016948355064, -74.00293337294273)"
419,Business,9/15/18,Inactive,4/21/16,Sidewalk Cafe,BKUK 7 CORP.,1,7TH AVE S,,NEW YORK,10014,Manhattan,102.0,3.0,67.0,-74.00505849,40.72963693,"(40.72963692725109, -74.00505849446525)"
420,Business,4/5/19,Active,3/28/16,Sidewalk Cafe,289 BLEECKER RESTAURANT LLC,289,BLEECKER ST,,NEW YORK,10014,Manhattan,102.0,3.0,67.0,-74.00347108,40.7320908,"(40.73209079707278, -74.0034710776578)"
421,Business,12/15/17,Inactive,11/16/15,Sidewalk Cafe,BOBWHITE COUNTER LLC,57,7TH AVE S,,NEW YORK,10014,Manhattan,102.0,3.0,67.0,-74.00398341,40.73153085,"(40.73153085052944, -74.00398340699935)"
422,Business,4/15/17,Inactive,8/13/15,Sidewalk Cafe,FRENCH CUISINE INC,78,CARMINE ST,,NEW YORK,10014,Manhattan,102.0,3.0,67.0,-74.0045209,40.72968636,"(40.72968635521218, -74.00452089747903)"
423,Business,12/15/17,Inactive,7/2/15,Sidewalk Cafe,ROHART INC,225,VARICK ST,,NEW YORK,10014,Manhattan,102.0,3.0,67.0,-74.00524968,40.72916482,"(40.72916482072673, -74.00524968423946)"
424,Business,9/15/19,Active,5/8/15,Sidewalk Cafe,INTERNATIONAL HOSPITALITY CONCEPTS LLC,29,7TH AVE S,,NEW YORK,10014,Manhattan,102.0,3.0,67.0,-74.00439469,40.73081171,"(40.73081170977062, -74.00439468964238)"
425,Business,9/15/19,Active,3/11/15,Sidewalk Cafe,10 DOWNING RESTAURANT LLC,10,DOWNING ST,,NEW YORK,10014,Manhattan,102.0,3.0,67.0,-74.00282511,40.72959583,"(40.72959583237184, -74.00282510607859)"
426,Business,4/15/16,Inactive,8/7/14,Sidewalk Cafe,NOODLE BAR LLC,26,CARMINE ST,,NEW YORK,10014,Manhattan,102.0,3.0,67.0,-74.00280348,40.73020791,"(40.73020791336071, -74.00280348350665)"
427,Business,4/15/18,Inactive,7/29/14,Sidewalk Cafe,"E.D.O. FOOD IV, LLC",71,7TH AVE S,,NEW YORK,10014,Manhattan,102.0,3.0,67.0,-74.00351799,40.732269200000005,"(40.73226920469593, -74.00351799353166)"
428,Business,4/15/19,Active,7/3/14,Sidewalk Cafe,CARAPINA LLC,233,BLEECKER ST,,NEW YORK,10014,Manhattan,102.0,3.0,67.0,-74.00251124,40.73041652,"(40.73041652150573, -74.00251123633063)"
429,Business,9/15/20,Active,5/8/14,Sidewalk Cafe,"NAUGHTY GULL, LLC",420,HUDSON ST,,NEW YORK,10014,Manhattan,102.0,3.0,67.0,-74.00680848,40.73043556,"(40.73043556089301, -74.0068084832097)"
430,Business,12/15/15,Inactive,10/4/13,Sidewalk Cafe,"CALIENTE CAB REST. CO., INC.",57,7TH AVE S,,NEW YORK,10014,Manhattan,,,67.0,-77.51958437,40.11238534,"(40.11238533659802, -77.51958437167269)"
431,Business,9/15/19,Inactive,5/30/13,Sidewalk Cafe,"JACK'S COFFEE IV, LLC",10,DOWNING ST,,NEW YORK,10014,Manhattan,102.0,3.0,67.0,-74.00282511,40.72959583,"(40.72959583237184, -74.00282510607859)"
432,Business,2/15/19,Active,9/26/12,Sidewalk Cafe,NACO NYC LLC,10,DOWNING ST,,NEW YORK,10014,Manhattan,102.0,3.0,67.0,-74.00282511,40.72959583,"(40.72959583237184, -74.00282510607859)"
433,Business,9/15/15,Inactive,9/5/12,Sidewalk Cafe,LA VILLETTE LLC,10,DOWNING ST,,NEW YORK,10014,Manhattan,102.0,3.0,67.0,-74.00282511,40.72959583,"(40.72959583237184, -74.00282510607859)"
434,Business,12/15/18,Active,4/23/12,Sidewalk Cafe,11 CARMINE TACOS LLC,11,CARMINE ST,,NEW YORK,10014,Manhattan,102.0,3.0,67.0,-74.00220094,40.73042202,"(40.73042201736517, -74.00220094006892)"
435,Business,12/15/18,Active,4/12/12,Sidewalk Cafe,"ZOSSIMA, INC.",27 1/2,MORTON ST,,NEW YORK,10014,Manhattan,,,67.0,-77.51958437,40.11238534,"(40.11238533659802, -77.51958437167269)"
436,Business,4/15/20,Active,2/14/12,Sidewalk Cafe,RARO INC.,29,7TH AVE S,,NEW YORK,10014,Manhattan,102.0,3.0,67.0,-74.00439469,40.73081171,"(40.73081170977062, -74.00439468964238)"
437,Business,9/15/16,Inactive,1/5/12,Sidewalk Cafe,AYZA UPPER WEST SIDE INC.,1,7TH AVE S,,NEW YORK,10014,Manhattan,102.0,3.0,67.0,-74.00505849,40.72963693,"(40.72963692725109, -74.00505849446525)"
438,Business,5/30/19,Active,7/8/11,Sidewalk Cafe,"BLEECKER SPAGHETTO, LLC",232,BLEECKER ST,,NEW YORK,10014,Manhattan,102.0,3.0,67.0,-74.00242824,40.73024086,"(40.730240858948704, -74.00242824367143)"
439,Business,4/15/15,Inactive,3/23/11,Sidewalk Cafe,"GRILLADE, LLC",28,7TH AVE S,,NEW YORK,10014,Manhattan,102.0,3.0,67.0,-74.00460394,40.73048508,"(40.73048507573195, -74.0046039380107)"
440,Business,12/15/19,Active,7/15/09,Sidewalk Cafe,"SPUNTO, INC.",65,CARMINE ST,,NEW YORK,10014,Manhattan,102.0,3.0,67.0,-74.00437658,40.729744000000004,"(40.72974400065336, -74.00437657891918)"
441,Business,4/15/19,Active,4/16/07,Sidewalk Cafe,"CALIENTE CAB REST. CO., INC.",61,7TH AVE S,,NEW YORK,10014,Manhattan,102.0,3.0,67.0,-74.00392929,40.73162966,"(40.73162966356138, -74.00392929044827)"
442,Business,4/15/19,Active,4/15/07,Sidewalk Cafe,GADBERRY PIZZA INC.,69,7TH AVE S,,NEW YORK,10014,Manhattan,,,67.0,-77.51958437,40.11238534,"(40.11238533659802, -77.51958437167269)"
443,Business,12/15/19,Active,3/1/07,Sidewalk Cafe,CORNELIA STREET CAFE INC.,29,CORNELIA ST,,NEW YORK,10014,Manhattan,102.0,3.0,67.0,-74.00235251,40.73135798,"(40.73135797584184, -74.00235251324737)"
444,Business,5/28/19,Active,3/21/06,Sidewalk Cafe,PEPE'S REST. GROUP LLC,170,W 4TH ST,,NEW YORK,10014,Manhattan,102.0,3.0,67.0,-74.00147936,40.73210456,"(40.732104563657785, -74.00147935772705)"
445,Business,1/31/19,Inactive,3/14/05,Sidewalk Cafe,"LA MERIDIANA, LTD.",26,CARMINE ST,,NEW YORK,10014,Manhattan,102.0,3.0,67.0,-74.00280348,40.73020791,"(40.73020791336071, -74.00280348350665)"
446,Business,4/15/17,Inactive,2/23/05,Sidewalk Cafe,GREENWICH VILLAGE BISTRO LTD.,13,CARMINE ST,,NEW YORK,10014,Manhattan,102.0,3.0,67.0,-74.00227671,40.73039457,"(40.73039456833966, -74.00227670919908)"
447,Business,9/15/17,Inactive,2/14/05,Sidewalk Cafe,N.E.C.F. INC.,63,CARMINE ST,,NEW YORK,10014,Manhattan,102.0,3.0,67.0,-74.00434411,40.72975498,"(40.7297549809049, -74.0043441070791)"
448,Business,5/15/17,Inactive,1/3/05,Sidewalk Cafe,SANGE REST. INC.,168,W 4TH ST,,NEW YORK,10014,Manhattan,102.0,3.0,67.0,-74.00144327,40.73206339,"(40.73206339279665, -74.00144327493952)"
449,Business,6/30/15,Inactive,12/20/04,Sidewalk Cafe,KARAVAS FOOD LTD,162,W 4TH ST,,NEW YORK,10014,Manhattan,102.0,3.0,67.0,-74.00132781,40.73193714,"(40.73193713547279, -74.00132781042846)"
450,Business,9/15/20,Inactive,11/29/18,Sidewalk Cafe,380 EAST VENTURES LLC,380,3RD AVE,,NEW YORK,10016,Manhattan,106.0,2.0,68.0,-73.98114813,40.74159164,"(40.74159164062547, -73.9811481334991)"
451,Business,4/15/20,Active,1/10/18,Sidewalk Cafe,23 LEXINGTON TENANT LLC,23,LEXINGTON AVE,,NEW YORK,10010,Manhattan,106.0,2.0,68.0,-73.98459127,40.73969827,"(40.73969827431133, -73.98459127445521)"
452,Business,12/15/19,Active,4/7/17,Sidewalk Cafe,CARRA LLC,338,3RD AVE,,NEW YORK,10010,Manhattan,106.0,2.0,68.0,-73.98228890000001,40.74002731,"(40.74002731345265, -73.98228889963036)"
453,Business,5/15/20,Active,2/28/17,Sidewalk Cafe,MFRF ENTERPRISES INC,358,3RD AVE,,NEW YORK,10016,Manhattan,106.0,2.0,68.0,-73.98170408,40.74082869,"(40.740828689460706, -73.98170408334104)"
454,Business,2/7/19,Inactive,8/9/16,Sidewalk Cafe,BLT/MAIN STREET LLC,111,E 22ND ST,,NEW YORK,10010,Manhattan,105.0,2.0,68.0,-73.98601317,40.7391797,"(40.73917969768135, -73.98601317205728)"
455,Business,9/15/16,Inactive,9/4/14,Sidewalk Cafe,"GL HOSPITALITY GROUP, LLC",338,3RD AVE,,NEW YORK,10010,Manhattan,106.0,2.0,68.0,-73.98228890000001,40.74002731,"(40.74002731345265, -73.98228889963036)"
456,Business,9/15/20,Active,8/6/14,Sidewalk Cafe,"26TH STREET RESTAURANT, LLC",345,PARK AVE S,,NEW YORK,10010,Manhattan,105.0,2.0,68.0,-73.98531618,40.74160872,"(40.741608715967466, -73.98531618219398)"
457,Business,3/31/16,Inactive,6/4/14,Sidewalk Cafe,Cibus Inc.,358,3RD AVE,,NEW YORK,10016,Manhattan,106.0,2.0,68.0,-73.98170408,40.74082869,"(40.740828689460706, -73.98170408334104)"
458,Business,4/15/19,Active,2/22/13,Sidewalk Cafe,SARABETH'S PAS LLC,381,PARK AVE S,,NEW YORK,10016,Manhattan,105.0,2.0,68.0,-73.98464114,40.74253361,"(40.74253360894918, -73.98464114127226)"
459,Business,12/15/20,Active,2/14/12,Sidewalk Cafe,"26TH STREET HOSPITALITY GROUP, LLC",365,PARK AVE S,,NEW YORK,10016,Manhattan,105.0,2.0,68.0,-73.98487217,40.74221799,"(40.74221799319669, -73.98487217321991)"
460,Business,12/15/19,Active,5/19/09,Sidewalk Cafe,"VALDOME, INC.",122,E 27TH ST,,NEW YORK,10016,Manhattan,105.0,2.0,68.0,-73.98348641,40.74225897,"(40.74225897409933, -73.98348640792182)"
461,Business,4/15/19,Active,5/30/07,Sidewalk Cafe,384 3RD AVE REST LLC,384,3RD AVE,,NEW YORK,10016,Manhattan,106.0,2.0,68.0,-73.98107593,40.74168770000001,"(40.741687695069615, -73.98107593214735)"
462,Business,4/15/19,Active,4/16/07,Sidewalk Cafe,"M.E.G.RESTAURANT ENTERPRISES,LTD.",102,E 22ND ST,,NEW YORK,10010,Manhattan,106.0,2.0,68.0,-73.98629101,40.73927854,"(40.73927854215839, -73.98629101182301)"
463,Business,12/31/18,Inactive,7/25/06,Sidewalk Cafe,SALVATORE'S CORP.,378,3RD AVE,,NEW YORK,10016,Manhattan,106.0,2.0,68.0,-73.98118063,40.74154224,"(40.74154224042086, -73.98118062578386)"
464,Business,4/15/18,Inactive,5/4/06,Sidewalk Cafe,J.M.M.T. CAFE INC.,360,3RD AVE,,NEW YORK,10016,Manhattan,106.0,2.0,68.0,-73.98165715,40.74089181,"(40.740891811275766, -73.98165715335558)"
465,Business,9/15/18,Inactive,1/17/06,Sidewalk Cafe,RBG VILLAGE LLC,380,3RD AVE,,NEW YORK,10016,Manhattan,106.0,2.0,68.0,-73.98114813,40.74159164,"(40.74159164062547, -73.9811481334991)"
466,Business,12/15/15,Inactive,6/23/05,Sidewalk Cafe,BLT/MAIN STREET LLC,111,E 22ND ST,,NEW YORK,10010,Manhattan,105.0,2.0,68.0,-73.98601317,40.7391797,"(40.73917969768135, -73.98601317205728)"
467,Business,5/8/19,Active,3/11/05,Sidewalk Cafe,PMC CORP.,354,3RD AVE,,NEW YORK,10010,Manhattan,106.0,2.0,68.0,-73.98187736,40.74058992,"(40.74058992348967, -73.98187736406769)"
468,Business,12/15/19,Active,3/4/05,Sidewalk Cafe,"BLUE SMOKE, LLC",116,E 27TH ST,,NEW YORK,10016,Manhattan,105.0,2.0,68.0,-73.98368848,40.74234409,"(40.74234409016808, -73.98368847649913)"
469,Business,8/20/19,Active,12/17/04,Sidewalk Cafe,LAMARCA INC.,161,E 22ND ST,,NEW YORK,10010,Manhattan,106.0,2.0,68.0,-73.98449411,40.73853723,"(40.73853723119184, -73.98449411243489)"
470,Business,12/15/20,Inactive,8/22/18,Sidewalk Cafe,STEM 330 LLC,455,HUDSON ST,,NEW YORK,10014,Manhattan,102.0,3.0,69.0,-74.00669672,40.73128095,"(40.73128095200977, -74.00669671709193)"
471,Business,12/15/19,Active,9/28/15,Sidewalk Cafe,VILLAGE RESTAURANT GROUP LLC,447,HUDSON ST,,NEW YORK,10014,Manhattan,102.0,3.0,69.0,-74.00672917,40.73105588,"(40.7310558802116, -74.00672916766828)"
472,Business,4/15/17,Inactive,4/16/07,Sidewalk Cafe,D.E.L. INC,455,HUDSON ST,,NEW YORK,10014,Manhattan,102.0,3.0,69.0,-74.00669672,40.73128095,"(40.73128095200977, -74.00669671709193)"
473,Business,9/15/19,Inactive,5/10/17,Sidewalk Cafe,STEEL PAN LLC,447,3RD AVE,,NEW YORK,10016,Manhattan,106.0,2.0,70.0,-73.97960297,40.74368013,"(40.74368013256662, -73.979602969044)"
474,Business,9/15/20,Active,2/27/14,Sidewalk Cafe,"E & E RESTAURANT 2, LLC",581,2ND AVENUE,,NEW YORK,10016,Manhattan,,,70.0,,,
475,Business,12/15/20,Active,1/16/14,Sidewalk Cafe,MUNSTER CAFE LLC,497,3RD AVE,,NEW YORK,10016,Manhattan,106.0,2.0,70.0,-73.97835376,40.74538714,"(40.745387138999995, -73.97835376389239)"
476,Business,4/15/19,Active,3/30/10,Sidewalk Cafe,THIRD AVE CAFE LLC,431,3RD AVE,,NEW YORK,10016,Manhattan,106.0,2.0,70.0,-73.97988457,40.74329317,"(40.74329317230181, -73.97988457357077)"
477,Business,12/15/19,Active,11/25/09,Sidewalk Cafe,VINO FIVE GROUP LLC,201,E 31ST ST,,NEW YORK,10016,Manhattan,106.0,2.0,70.0,-73.97915908,40.74368829,"(40.74368828735028, -73.97915908205314)"
478,Business,9/15/19,Active,4/22/09,Sidewalk Cafe,AAM RESTAURANT LLC,415,3RD AVE,,NEW YORK,10016,Manhattan,106.0,2.0,70.0,-73.98033586,40.74267568,"(40.74267568137549, -73.98033585527597)"
479,Business,9/15/15,Inactive,3/1/07,Sidewalk Cafe,STS RESTAURANT CORP.,505,3RD AVE,,NEW YORK,10016,Manhattan,106.0,2.0,70.0,-73.97818768,40.74562316,"(40.745623156125156, -73.97818767680245)"
480,Business,4/15/16,Inactive,3/29/06,Sidewalk Cafe,STS RESTAURANT CORP.,505,3RD AVE,,NEW YORK,10016,Manhattan,106.0,2.0,70.0,-73.97818768,40.74562316,"(40.745623156125156, -73.97818767680245)"
481,Business,2/15/19,Inactive,5/13/05,Sidewalk Cafe,"449 RESTAURANT, INC.",449,3RD AVE,,NEW YORK,10016,Manhattan,106.0,2.0,70.0,-73.97956687,40.74372679,"(40.74372678692098, -73.97956686656951)"
482,Business,4/15/17,Inactive,2/3/05,Sidewalk Cafe,ARECAT REST. CORP.,501,3RD AVE,,NEW YORK,10016,Manhattan,106.0,2.0,70.0,-73.97827072,40.74550515,"(40.745505147593484, -73.9782707204945)"
483,Business,5/15/18,Inactive,3/21/03,Sidewalk Cafe,603 SECOND AVE. CORP.,603,2ND AVE,,NEW YORK,10016,Manhattan,106.0,2.0,70.0,-73.97628628,40.74419826,"(40.74419825520961, -73.97628628217099)"
484,Business,3/19/19,Active,8/23/18,Sidewalk Cafe,BL 55 GREENWICH NY LLC,55,GREENWICH AVE,,NEW YORK,10014,Manhattan,102.0,3.0,71.0,-74.00067838,40.735829200000005,"(40.735829202185954, -74.00067837755917)"
485,Business,12/15/20,Active,5/30/18,Sidewalk Cafe,TAPESTRY MANAGEMENT LLC,60,GREENWICH AVE,,NEW YORK,10011,Manhattan,102.0,3.0,71.0,-74.00076859,40.73602408,"(40.736024079092125, -74.00076858958887)"
486,Business,9/15/20,Active,5/23/18,Sidewalk Cafe,1 PERRY LLC,1,PERRY ST,,NEW YORK,10014,Manhattan,102.0,3.0,71.0,-74.00084797,40.73591429,"(40.73591428841001, -74.00084797303181)"
487,Business,1/6/18,Inactive,7/6/17,Sidewalk Cafe,SUPER NORIEGA LLC,173,7TH AVE S,,NEW YORK,10014,Manhattan,102.0,3.0,71.0,-74.00147223,40.73590879,"(40.73590879261513, -74.00147222539765)"
488,Business,12/15/19,Active,4/18/17,Sidewalk Cafe,"62 GREENWICH, LLC",62,GREENWICH AVE,,NEW YORK,10011,Manhattan,102.0,3.0,71.0,-74.00081189,40.73609819,"(40.736098187128384, -74.00081189131377)"
489,Business,12/15/19,Inactive,4/7/17,Sidewalk Cafe,"BLF BIG APPLE, LLC",33,GREENWICH AVE,,NEW YORK,10014,Manhattan,102.0,3.0,71.0,-74.00023093,40.73508538,"(40.7350853758031, -74.00023093446343)"
490,Business,4/15/20,Active,6/23/16,Sidewalk Cafe,MOONBLU INC,361,6TH AVE,,NEW YORK,10014,Manhattan,102.0,3.0,71.0,-74.00062061,40.73218691,"(40.73218691412531, -74.00062060937441)"
491,Business,4/15/19,Active,1/26/16,Sidewalk Cafe,"OFF CUTS, LLC",19,GREENWICH AVE,,NEW YORK,10014,Manhattan,102.0,3.0,71.0,-73.99990258,40.73453094,"(40.734530935772995, -73.9999025753339)"
492,Business,4/15/18,Inactive,7/25/14,Sidewalk Cafe,"55 GREENWICH CAFE, INC.",55,GREENWICH AVE,,NEW YORK,10014,Manhattan,102.0,3.0,71.0,-74.00067838,40.735829200000005,"(40.735829202185954, -74.00067837755917)"
493,Business,4/15/20,Active,4/22/14,Sidewalk Cafe,THAI SMILE RESTAURANT INC.,3,GREENWICH AVE,,NEW YORK,10014,Manhattan,102.0,3.0,71.0,-73.99963556,40.73393807,"(40.733938068420024, -73.99963556282495)"
494,Business,4/15/15,Inactive,6/24/13,Sidewalk Cafe,"1 PERRY ST. RESTAURANT, INC.",57,GREENWICH AVE,,NEW YORK,10014,Manhattan,102.0,3.0,71.0,-74.00078663,40.73601859,"(40.73601858946412, -74.00078663153319)"
495,Business,4/15/17,Inactive,5/14/13,Sidewalk Cafe,"WHITEHALL NYC, LLC",19,GREENWICH AVE,,NEW YORK,10014,Manhattan,102.0,3.0,71.0,-73.99990258,40.73453094,"(40.734530935772995, -73.9999025753339)"
496,Business,12/15/19,Active,1/25/13,Sidewalk Cafe,"18 GREENWICH AVENUE, LLC",18,GREENWICH AVE,,NEW YORK,10011,Manhattan,102.0,3.0,71.0,-74.00005052,40.73483286,"(40.73483285870073, -74.00005051672244)"
497,Business,3/29/19,Active,6/4/12,Sidewalk Cafe,CLEW Z. ANGUS (USA) INC.,15,GREENWICH AVE,,NEW YORK,10014,Manhattan,102.0,3.0,71.0,-73.99983763,40.73440742,"(40.73440742178346, -73.99983762585748)"
498,Business,4/15/19,Inactive,11/29/11,Sidewalk Cafe,APICIO LLC,359,AVENUE OF THE AMERICAS,,NEW YORK,10014,Manhattan,102.0,3.0,71.0,-74.00064947,40.732143,"(40.732142997892986, -74.00064947449866)"
499,Business,9/15/19,Active,3/22/11,Sidewalk Cafe,64 GREENWICH RESTAURANT LLC,64,GREENWICH AVE,,NEW YORK,10011,Manhattan,102.0,3.0,71.0,-74.00085519,40.7361723,"(40.73617229514759, -74.000855193135)"
500,Business,9/15/15,Inactive,2/15/11,Sidewalk Cafe,"GUSTO GRILLED ORGANICS, INC.",519-523,AVENUE OF THE AMERICAS,,NEW YORK,10011,Manhattan,,,71.0,-77.51958437,40.11238534,"(40.11238533659802, -77.51958437167269)"
501,Business,4/29/19,Active,2/5/10,Sidewalk Cafe,OLIO RESTAURANTS LLC,3,GREENWICH AVE,,NEW YORK,10014,Manhattan,102.0,3.0,71.0,-73.99963556,40.73393807,"(40.733938068420024, -73.99963556282495)"
502,Business,5/28/19,Active,2/24/06,Sidewalk Cafe,FIDDLESTICKS L.L.C.,54,GREENWICH AVE,,NEW YORK,10011,Manhattan,102.0,3.0,71.0,-74.00060982,40.73575784,"(40.735757838986466, -74.00060981747188)"
503,Business,5/20/19,Active,2/1/06,Sidewalk Cafe,"WOGIE'S, INC.",39,GREENWICH AVE,,NEW YORK,10014,Manhattan,102.0,3.0,71.0,-74.00042218,40.73539828,"(40.7353982771485, -74.0004221790485)"
504,Business,5/15/16,Inactive,1/17/06,Sidewalk Cafe,"OLIVER KING ENTERPRISES, INC.",173,7TH AVE S,,NEW YORK,10014,Manhattan,102.0,3.0,71.0,-74.00147223,40.73590879,"(40.73590879261513, -74.00147222539765)"
505,Business,3/1/19,Active,6/26/18,Sidewalk Cafe,181 LEXINGTON AVENUE BBQ LLC,181,LEXINGTON AVE,,NEW YORK,10016,Manhattan,106.0,2.0,72.0,-73.98099931,40.74463005,"(40.744630054902935, -73.98099931014639)"
506,Business,4/15/19,Active,4/19/17,Sidewalk Cafe,"RUBY'S MIDTOWN, LLC",442,3RD AVE,,NEW YORK,10016,Manhattan,106.0,2.0,72.0,-73.97970405,40.74357311,"(40.743573105163684, -73.97970404851269)"
507,Business,10/17/18,Inactive,7/26/16,Sidewalk Cafe,VER34 LLC,127,E 34TH ST,,NEW YORK,10016,Manhattan,106.0,2.0,72.0,-73.98015064,40.74658966,"(40.74658966289198, -73.98015064231994)"
508,Business,11/30/16,Inactive,5/13/16,Sidewalk Cafe,"CURRY SHACK, CORP",430,3RD AVE,,NEW YORK,10016,Manhattan,106.0,2.0,72.0,-73.98003620000001,40.74311753,"(40.743117534657394, -73.98003619561636)"
509,Business,12/15/17,Inactive,6/15/15,Sidewalk Cafe,LENWICH 31ST PARK LLC,459,PARK AVE S,,NEW YORK,10016,Manhattan,105.0,2.0,72.0,-73.98278558,40.74508322,"(40.74508321944474, -73.98278558272322)"
510,Business,12/15/16,Inactive,7/25/14,Sidewalk Cafe,"MLGT GRILL, LLC",442,3RD AVE,,NEW YORK,10016,Manhattan,106.0,2.0,72.0,-73.97970405,40.74357311,"(40.743573105163684, -73.97970404851269)"
511,Business,4/15/16,Inactive,5/21/14,Sidewalk Cafe,"ENZO THIRD AVE., LLC",444-447,3RD AVE,,NEW YORK,10016,Manhattan,106.0,2.0,72.0,-73.97966433,40.74362799,"(40.74362799316358, -73.9796643348405)"
512,Business,12/15/19,Active,5/9/11,Sidewalk Cafe,BB ONE LLC,514,3RD AVE,,NEW YORK,10016,Manhattan,106.0,2.0,72.0,-73.97791326,40.74602933,"(40.746029326741365, -73.97791326408628)"
