License Serial Number,License Type Name,License Class Code,License Type Code,Agency Zone Office Name,Agency Zone Office Number,County Name (Licensee),Premises Name,Doing Business As (DBA),Actual Address of Premises (Address1),Additional Address Information (Address2),City,State,Zip,License Certificate Number,License Original Issue Date,License Effective Date,License Expiration Date,Latitude,Longitude,Location
1299304,CABARET LIQUOR,256,CR,New York City,1,NEW YORK,512 W42 RETAIL LLC & CACHET HOTEL GROUP LIMITED,PLAYBOY CLUB NEW YORK,512 W 42ND ST,,NEW YORK,NY,10036,776027,10/31/18,10/31/18,9/30/20,40.64282,-73.93724,"(40.64282, -73.93724)"
1022476,CLUB LIQUOR,243,CL,New York City,1,NEW YORK,"JUNIOR LEAGUE OF THE,THE",CITY OF NEW YORK INC,128 130 E 80TH STREET,,NEW YORK,NY,10075,872039,,3/1/17,2/28/19,40.77584852,-73.95905923,"(40.7758485181, -73.9590592256)"
1022475,CLUB LIQUOR,243,CL,New York City,1,NEW YORK,"COSMOPOLITAN CLUB,THE",,122 E 66TH ST & 129 E 65TH ST,,NEW YORK,NY,10065,871651,,3/1/17,2/28/19,40.76669874,-73.9653711,"(40.7666987437, -73.9653710971)"
1022457,CLUB LIQUOR,243,CL,New York City,1,NEW YORK,"NEW YORK ATHLETIC CLUB,THE",NEW YORK ATHLETIC CLUB,180 CENTRAL PARK SOUTH,,NEW YORK,NY,10019,871196,,3/1/17,2/28/19,40.76658982,-73.97854878,"(40.7665898199, -73.9785487793)"
1022477,CLUB LIQUOR,243,CL,New York City,1,NEW YORK,"LEASH,THE",MEMBERSHIP CLUB,41 E 63RD STREET,,NEW YORK,NY,10021,871405,,3/1/17,2/28/19,40.76598769,-73.96918879,"(40.7659876853, -73.9691887923)"
1022468,CLUB LIQUOR,243,CL,New York City,1,NEW YORK,LINKS CLUB INC,THE LINKS,36 E 62ND ST,,NEW YORK,NY,10065,871372,,3/1/17,2/28/19,40.76532747,-73.96988248,"(40.765327466, -73.9698824807)"
1022462,CLUB LIQUOR,243,CL,New York City,1,NEW YORK,COLONY CLUB,,564 PARK AVE,,NEW YORK,NY,10021,871983,,3/1/17,2/28/19,40.7650366,-73.96846162,"(40.7650365987, -73.968461624)"
1022459,CLUB LIQUOR,243,CL,New York City,1,NEW YORK,"NIPPON CLUB INC,THE",,145 W 57TH STREET,CELLAR TO 7TH FLOOR,NEW YORK,NY,10019,8871179,,3/1/17,2/28/19,40.7649079,-73.9784302,"(40.7649079013, -73.9784302027)"
1022488,CLUB LIQUOR,243,CL,New York City,1,NEW YORK,"BROOK INC,THE",,111 E 54TH STREET,,NEW YORK,NY,10022,869922,,3/1/17,2/28/19,40.75950703,-73.97158125,"(40.7595070279, -73.9715812466)"
1022487,CLUB LIQUOR,243,CL,New York City,1,NEW YORK,RACQUET & TENNIS CLUB,,370 PARK AVE,,NEW YORK,NY,10022,872111,,3/1/17,2/28/19,40.75888429,-73.97295134,"(40.758884291, -73.97295134)"
1022509,CLUB LIQUOR,243,CL,New York City,1,NEW YORK,"NEW YORK YACHT CLUB,THE",,37 41 W 44TH STREET,,NEW YORK,NY,10036,872099,,3/1/17,2/28/19,40.75531627,-73.98109272,"(40.7553162726, -73.9810927231)"
1022506,CLUB LIQUOR,243,CL,New York City,1,NEW YORK,"ASSOCIATION OF THE BAR,THE",OF THE CITY OF NEW YORK,42 W 44TH STREET,,NEW YORK,NY,10036,871711,,3/1/17,2/28/19,40.7552837,-73.98131356,"(40.7552836989, -73.9813135635)"
1022504,CLUB LIQUOR,243,CL,New York City,1,NEW YORK,HARVARD CLUB OF NEW YORK CITY,,27 W 44TH STREET,,NEW YORK,NY,10036,8871175,,3/1/17,2/28/19,40.75518486,-73.98078051,"(40.7551848642, -73.9807805116)"
1022507,CLUB LIQUOR,243,CL,New York City,1,NEW YORK,"CENTURY ASSOCIATION,THE",,7 W 43RD STREET,,NEW YORK,NY,10036,8871181,,3/1/17,2/28/19,40.75429448,-73.98062158,"(40.7542944767, -73.9806215755)"
1022449,CLUB LIQUOR,243,CL,New York City,1,NEW YORK,"YALE CLUB OF NEW YORK CITY,THE",,50 VANDERBILT AVE,,NEW YORK,NY,10017,871900,,3/1/17,2/28/19,40.75373687,-73.97747607,"(40.7537368658, -73.9774760674)"
1022445,CLUB LIQUOR,243,CL,New York City,1,NEW YORK,"UNION LEAGUE CLUB,THE",,38 E 37TH STREET,,NEW YORK,NY,10016,871550,,3/1/17,2/28/19,40.74943875,-73.9811967,"(40.7494387544, -73.9811966985)"
1022444,CLUB LIQUOR,243,CL,New York City,1,NEW YORK,ESTONIAN EDUCATIONAL,SOCIETY INC,243 E 34TH ST,,NEW YORK,NY,10016,872109,,3/1/17,2/28/19,40.74512268,-73.97654995,"(40.745122684, -73.9765499538)"
1022431,CLUB LIQUOR,243,CL,New York City,1,NEW YORK,"NATIONAL ARTS CLUB, THE",,15 GRAMERCY PARK S,,NEW YORK,NY,10003,871772,,3/1/17,2/28/19,40.73781161,-73.98654384,"(40.7378116117, -73.986543835)"
1022479,CLUB LIQUOR,243,CL,New York City,1,NEW YORK,"ROCKEFELLER UNIVERSITY,THE",FACULTY & STUDENTS CLUB INC,1230 52 YORK AVE,,NEW YORK,NY,10021,871669,,3/1/17,2/28/19,40.72099344,-74.00552974,"(40.7209934403, -74.0055297394)"
1022471,CLUB LIQUOR,243,CL,New York City,1,NEW YORK,REGENCY WHIST CLUB INC,,15 E 67TH STREET,ATTN MARGIE GEWIRTZ,NEW YORK,NY,10065,871985,,3/1/17,2/28/19,,,
1022510,CLUB LIQUOR,243,CL,New York City,1,NEW YORK,"PRINCETON CLUB OF NEW YORK,THE",,15 W 43RD STREET,,NEW YORK,NY,10036,872708,,3/13/17,2/28/19,40.75440405,-73.98086786,"(40.7544040547, -73.9808678621)"
1303233,CLUB LIQUOR,243,CL,New York City,1,NEW YORK,SAINT ANDREW'S SOCIETY OF THE STATE OF NEW YORK,,150 E 55TH ST,3RD FL,NEW YORK,NY,10022,862199,8/10/17,8/10/17,7/31/19,40.75921,-73.96938,"(40.75921, -73.96938)"
1306039,CLUB LIQUOR,243,CL,New York City,1,NEW YORK,21 WEST END ASSOCIATION INC,CAFE 21,21 WEST END AVE,,NEW YORK,NY,10023,862861,1/5/18,1/5/18,12/31/19,40.77226,-73.98998,"(40.77226, -73.98998)"
1022463,CLUB LIQUOR,243,CL,New York City,1,NEW YORK,COLUMBUS CITIZENS HOUSE INC,COLUMBUS CITIZENS FND,8 E 69TH STREET,,NEW YORK,NY,10021,884957,,3/1/18,2/29/20,40.77023166,-73.96793008,"(40.7702316575, -73.9679300752)"
1022466,CLUB LIQUOR,243,CL,New York City,1,NEW YORK,GRIFFIS FACULTY CLUB INC,,521 E 68TH STREET,,NEW YORK,NY,10021,884124,,3/1/18,2/29/20,40.76423694,-73.95535453,"(40.7642369427, -73.9553545304)"
1022452,CLUB LIQUOR,243,CL,New York City,1,NEW YORK,CENTRAL FILING CLUB LTD,C/O BBDO NEW YORK,1285 AVENUE OF THE AMERICAS,,NEW YORK,NY,10019,884418,,3/1/18,2/29/20,40.76070483,-73.97989374,"(40.760704831, -73.9798937356)"
1022433,CLUB LIQUOR,243,CL,New York City,1,NEW YORK,UKRAINIAN AMERICAN SOCCER,ASSOCIATION INC,122 2ND AVENUE GR FL,,NEW YORK,NY,10003,883898,,3/1/18,2/29/20,40.72816332,-73.98790286,"(40.7281633249, -73.9879028552)"
1272412,CLUB LIQUOR,243,CL,New York City,1,NEW YORK,SOHO-LUDLOW INC,LUDLOW HOUSE/LIVING ROOM,139 LUDLOW ST,,NEW YORK,NY,10002,886227,5/19/16,5/1/18,4/30/20,40.72041297,-73.98816681,"(40.7204129704, -73.9881668076)"
1104448,CLUB LIQUOR,243,CL,New York City,1,NEW YORK,PC CLUB INC,THE PHILLIPS CLUB,155 W 66TH ST-1ST FLOOR,,NEW YORK,NY,10023,886468,,5/1/18,4/30/20,40.77428069,-73.98305871,"(40.7742806852, -73.9830587054)"
1022440,CLUB LIQUOR,243,CL,New York City,1,NEW YORK,SERGEANTS MESS OF THE 69TH INFANTRY INC.,,68 LEXINGTON AVENUE,2ND FLOOR,NEW YORK,NY,10010,887191,6/27/18,5/4/18,4/30/20,40.74106161,-73.98360934,"(40.7410616066, -73.9836093392)"
1292700,CLUB LIQUOR,243,CL,New York City,1,NEW YORK,56TH STREET DINING CLUB INC,,432 PARK AVE,,NEW YORK,NY,10022,893126,8/24/16,8/1/18,7/31/20,40.74422,-73.98365,"(40.74422, -73.98365)"
1302912,CLUB LIQUOR,243,CL,New York City,1,NEW YORK,CCC NFP INC,CCC CLUBHOUSE,1 PIER 76,,NEW YORK,NY,10018,887763,8/2/18,8/2/18,7/31/20,0,0,"(0.0, 0.0)"
1301959,CLUB LIQUOR,243,CL,New York City,1,NEW YORK,WALL STREET OWNER INC,,63 WALL ST,,NEW YORK,NY,10005,887775,8/6/18,8/6/18,7/31/20,40.70579,-74.00859,"(40.70579, -74.00859)"
1293258,CLUB LIQUOR,243,CL,New York City,1,NEW YORK,STUDIO 466 INC,,466 LEXINGTON AVE,3RD FLOOR,NEW YORK,NY,10017,899905,11/3/16,12/5/18,11/30/20,40.75374,-73.97456,"(40.75374, -73.97456)"
1022461,CLUB LIQUOR,243,CL,New York City,1,NEW YORK,WOMENS NATIONAL REPUBLICAN CLUB INC,,3 W 51ST STREET,,NEW YORK,NY,10019,900621,,3/1/19,2/28/21,40.75929954,-73.97691088,"(40.7592995411, -73.9769108836)"
1291836,EATING PLACE BEER,141,EB,New York City,1,NEW YORK,TAQUERIA LOS JARRITOS INC,,121 NAGLE AVE,A,NEW YORK,NY,10040,863803,5/12/16,5/12/16,4/30/19,40.86061,-73.92697,"(40.86061, -73.92697)"
1292599,EATING PLACE BEER,141,EB,New York City,1,NEW YORK,1290 6TH AVE TACOS LLC,DOS TOROS,1290 6TH AVE,,NEW YORK,NY,10019,863902,6/7/16,6/7/16,5/31/19,40.76085,-73.97962,"(40.76085, -73.97962)"
1294360,EATING PLACE BEER,141,EB,New York City,1,NEW YORK,NEW TOASTIES DELI INC,,25 JOHN ST,,NEW YORK,NY,10038,863954,6/17/16,6/17/16,5/31/19,40.70972,-74.00861,"(40.70972, -74.00861)"
1291933,EATING PLACE BEER,141,EB,New York City,1,NEW YORK,114 BAGEL & GRILL INC,BAGEL BELLY,114 3RD AVE,,NEW YORK,NY,10003,864014,7/5/16,7/5/16,6/30/19,40.73303,-73.9876,"(40.73303, -73.9876)"
1293573,EATING PLACE BEER,141,EB,New York City,1,NEW YORK,119 WEST 40TH TACOS LLC,DOS TOROS,119 W 40TH ST,,NEW YORK,NY,10018,864347,9/22/16,9/22/16,8/31/19,40.75402,-73.9859,"(40.75402, -73.9859)"
1296450,EATING PLACE BEER,141,EB,New York City,1,NEW YORK,18 PIZZA LLC,BRAVO KOSHER PIZZA,17 TRINITY PL,AKA 45 BROADWAY,NEW YORK,NY,10006,864346,9/22/16,9/22/16,8/31/19,40.70666,-74.01355,"(40.70666, -74.01355)"
1022940,EATING PLACE BEER,141,EB,New York City,1,NEW YORK,AVERY 147 CORP,SWEET LIFE CAFE,147 CHRISTOPHER STREET,,NEW YORK,NY,10014,884841,,9/29/16,6/30/19,,,
1296448,EATING PLACE BEER,141,EB,New York City,1,NEW YORK,MFKA ENTERPRISES INC,BRAVO PIZZA,360 7TH AVE,,NEW YORK,NY,10001,864393,9/30/16,9/30/16,8/31/19,40.74845,-73.9927,"(40.74845, -73.9927)"
1293638,EATING PLACE BEER,141,EB,New York City,1,NEW YORK,LEXINGTON DELI INC,,1332 LEXINGTON AVE,,NEW YORK,NY,10128,885436,10/6/16,10/6/16,9/30/19,40.78137,-73.95439,"(40.78137, -73.95439)"
1295098,EATING PLACE BEER,141,EB,New York City,1,NEW YORK,"BIG SLICE OF NEW YORK LLC, THE",,146 5TH AVE,,NEW YORK,NY,10011,864715,12/1/16,12/1/16,11/30/19,40.73939,-73.99137,"(40.73939, -73.99137)"
1295847,EATING PLACE BEER,141,EB,New York City,1,NEW YORK,BAKER'S PIZZA INC,BAKER'S PIZZA,201 AVENUE A,SOUTH STORE,NEW YORK,NY,10009,864763,12/14/16,12/14/16,11/30/19,40.72943,-73.98125,"(40.72943, -73.98125)"
1297352,EATING PLACE BEER,141,EB,New York City,1,NEW YORK,RACKSON RESTAURANTS LLC,BURGER KING,106 LIBERTY ST,,NEW YORK,NY,10006,864789,12/20/16,12/20/16,11/30/19,40.70969,-74.0119,"(40.70969, -74.0119)"
1022868,EATING PLACE BEER,141,EB,New York City,1,NEW YORK,PEDRO J RODRIGUEZ,EL RINCONCITO RESTAURANT,408 E 10TH STREET,,NEW YORK,NY,10009,888158,,2/1/17,1/31/20,40.72566541,-73.97719158,"(40.7256654116, -73.977191583)"
1300224,EATING PLACE BEER,141,EB,New York City,1,NEW YORK,ASFJ ENTERPRISES INC,BRAVO PIZZA,107 W 37TH ST,,NEW YORK,NY,10018,865137,3/17/17,3/17/17,2/29/20,40.75213,-73.98719,"(40.75213, -73.98719)"
1299920,EATING PLACE BEER,141,EB,New York City,1,NEW YORK,668 6TH AVE TACOS LLC,DOS TOROS,668 6TH AVE,,NEW YORK,NY,10010,865267,4/7/17,4/7/17,3/31/20,40.74136,-73.99371,"(40.74136, -73.99371)"
1300782,EATING PLACE BEER,141,EB,New York City,1,NEW YORK,MOUBARAK SOULFOOD RESTAURANT INC,DON RICO POLLO,588 MALCOLM X BLVD,,NEW YORK,NY,10037,865362,5/4/17,5/4/17,4/30/20,40.81705,-73.93852,"(40.81705, -73.93852)"
1297212,EATING PLACE BEER,141,EB,New York City,1,NEW YORK,DESI DELI INC,DESI DELI PUNJABI DHABA,724 10TH AVE,,NEW YORK,NY,10019,865424,5/18/17,5/18/17,4/30/20,40.76433,-73.99182,"(40.76433, -73.99182)"
1299122,EATING PLACE BEER,141,EB,New York City,1,NEW YORK,MILK AND HOPS 3 INC,,1159 1ST AVE,,NEW YORK,NY,10065,865449,5/23/17,5/23/17,4/30/20,40.76227,-73.9601,"(40.76227, -73.9601)"
1023049,EATING PLACE BEER,141,EB,New York City,1,NEW YORK,RAY MANGANO 7TH AVE PIZZA CORP,FAMOUS ORIGINAL RAYS PIZZA,829 7TH AVENUE,,NEW YORK,NY,10019,891029,,6/1/17,5/31/20,,,
1302457,EATING PLACE BEER,141,EB,New York City,1,NEW YORK,BROADWAY BBQ LLC,MIGHTY QUINN'S BARBEQUE,1407 BROADWAY,SPACE B,NEW YORK,NY,10018,881699,7/27/17,7/27/17,6/30/20,40.75315,-73.98744,"(40.75315, -73.98744)"
1297471,EATING PLACE BEER,141,EB,New York City,1,NEW YORK,ZARAGOZA MEXICAN DELI & GROCERY INC,,215 AVENUE A,,NEW YORK,NY,10009,881767,8/14/17,8/14/17,7/31/20,40.73001,-73.98083,"(40.73001, -73.98083)"
1302357,EATING PLACE BEER,141,EB,New York City,1,NEW YORK,SEAFLOWER FISH MARKET INC,,4127 BROADWAY,STORE 5,NEW YORK,NY,10033,881793,8/21/17,8/21/17,7/31/20,40.84579,-73.93878,"(40.84579, -73.93878)"
1023114,EATING PLACE BEER,141,EB,New York City,1,NEW YORK,DANIELLOS PIZZERIA INC,DANIELLOS PIZZERIA,70 WEST 95TH STREET,,NEW YORK,NY,10025,893725,,10/1/17,9/30/20,40.79181,-73.96729417,"(40.791810001, -73.9672941663)"
1304153,EATING PLACE BEER,141,EB,New York City,1,NEW YORK,RACKSON RESTAURANTS LLC,BURGER KING,474 7TH AVE,,NEW YORK,NY,10019,881999,10/11/17,10/11/17,9/30/20,40.75218,-73.98999,"(40.75218, -73.98999)"
1023074,EATING PLACE BEER,141,EB,New York City,1,NEW YORK,TIHI RESTAURANT CORP,NEILS COFFEE SHOP,961 LEXINGTON AVENUE,,NEW YORK,NY,10021,894188,,10/12/17,9/30/20,40.76905985,-73.96310231,"(40.7690598454, -73.9631023056)"
1303076,EATING PLACE BEER,141,EB,New York City,1,NEW YORK,LODGING CONCESSIONS LLC,HAMPTON INN NEW YORK,220 W 41ST ST,,NEW YORK,NY,10036,897511,10/30/17,10/31/17,9/30/20,40.75573,-73.98853,"(40.75573, -73.98853)"
1022750,EATING PLACE BEER,141,EB,New York City,1,NEW YORK,CARRD ENTERPRISES INC,DON PEPI PIZZA,PENN STA GRAND CONCOURSE,,NEW YORK,NY,10001,895647,,12/1/17,11/30/20,40.7507815,-73.99440774,"(40.750781502, -73.9944077444)"
1293878,EATING PLACE BEER,141,EB,New York City,1,NEW YORK,HOWLING INC,WOLFNIGHTS,99 RIVINGTON ST,AKA 127 LUDLOW ST,NEW YORK,NY,10002,882323,12/19/17,12/19/17,11/30/20,40.72002,-73.98839,"(40.72002, -73.98839)"
1305933,EATING PLACE BEER,141,EB,New York City,1,NEW YORK,MY NOODLE STATION INC,MY NOODLE STATION,19 ELDRIDGE ST,,NEW YORK,NY,10002,882373,1/4/18,1/4/18,12/31/20,40.715,-73.99369,"(40.715, -73.99369)"
1307275,EATING PLACE BEER,141,EB,New York City,1,NEW YORK,LA LOMITA MEXICAN DELI CORP,,3866-68 10TH AVE,,NEW YORK,NY,10034,882600,3/2/18,3/2/18,2/28/21,40.8642,-73.91936,"(40.8642, -73.91936)"
1306181,EATING PLACE BEER,141,EB,New York City,1,NEW YORK,NO 1 CALLE 191 PESCADERIA INC,NO 1 CALLE 191 PESCADERIA,1609 ST NICHOLAS AVENUE,STORE 4,NEW YORK,NY,10040,882627,3/13/18,3/13/18,2/28/21,40.85517,-73.92994,"(40.85517, -73.92994)"
1307996,EATING PLACE BEER,141,EB,New York City,1,NEW YORK,LUCERO FOOD CORP,JOE JUNIOR RESTAURANT,167 3RD AVE,,NEW YORK,NY,10003,882770,4/19/18,4/19/18,3/31/21,40.73467,-73.98596,"(40.73467, -73.98596)"
1308868,EATING PLACE BEER,141,EB,New York City,1,NEW YORK,YOU TONG LIN,NEW SPRING BOY CHINESE RESTAURANT,81 ALLEN ST,,NEW YORK,NY,10002,882797,4/27/18,4/27/18,3/31/21,40.718,-73.99128,"(40.718, -73.99128)"
1023003,EATING PLACE BEER,141,EB,New York City,1,NEW YORK,CHRISTINE INC,OLIVE TREE,1420 BROADWAY,,NEW YORK,NY,10018,900209,8/30/17,6/1/18,5/31/21,,,
1104551,EATING PLACE BEER,141,EB,New York City,1,NEW YORK,COFFIELD INC,CAFE CELLO,48 WEST 46TH STREET,6TH AVENUE & 46TH STREET,NEW YORK,NY,10036,899609,,6/1/18,5/31/21,40.75662293,-73.98057965,"(40.7566229335, -73.9805796535)"
1023101,EATING PLACE BEER,141,EB,New York City,1,NEW YORK,BARNEY GREENGRASS INC,,541 AMSTERDAM AVE,,NEW YORK,NY,10024,900350,,7/1/18,6/30/21,40.78767789,-73.97493607,"(40.7876778883, -73.9749360715)"
1023084,EATING PLACE BEER,141,EB,New York City,1,NEW YORK,J D & G FOODS INC,PRIMAVERA PIZZA & PASTA,1005 2ND AVENUE,,NEW YORK,NY,10022,901156,,7/1/18,6/30/21,40.7568882,-73.96712866,"(40.7568882005, -73.9671286591)"
1310277,EATING PLACE BEER,141,EB,New York City,1,NEW YORK,RED VELVET PRODUCTIONS LLC,OLIVE'S,225 LIBERTY ST,STE 253,NEW YORK,NY,10281,883079,7/12/18,7/12/18,6/30/21,40.71156,-74.01533,"(40.71156, -74.01533)"
1022752,EATING PLACE BEER,141,EB,New York City,1,NEW YORK,DON PEPI DELI INC,DON PEPI'S DELICATESSEN,PENN STA MAIN CONCOURSE,,NEW YORK,NY,10001,900175,,8/1/18,7/31/21,40.7507815,-73.99440774,"(40.750781502, -73.9944077444)"
1023162,EATING PLACE BEER,141,EB,New York City,1,NEW YORK,POST BILLIARDS CAFE INC,,154 POST AVENUE,,NEW YORK,NY,10034,908925,,11/1/18,10/31/21,40.86493093,-73.91918074,"(40.8649309347, -73.9191807435)"
1313041,EATING PLACE BEER,141,EB,New York City,1,NEW YORK,HMSDS USA CORP,CAFE WATER,130 WATER ST,,NEW YORK,NY,10005,903538,11/9/18,11/9/18,10/31/21,40.70564,-74.00702,"(40.70564, -74.00702)"
1313752,EATING PLACE BEER,141,EB,New York City,1,NEW YORK,HARI 1 INC,HARI DELI,255 W 36TH ST,,NEW YORK,NY,10018,903786,1/18/19,1/18/19,12/31/21,40.75281,-73.99069,"(40.75281, -73.99069)"
1291672,EATING PLACE BEER,141,EB,New York City,1,NEW YORK,636 LEXINGTON TACOS LLC,DOS TOROS,636 LEXINGTON AVE,,NEW YORK,NY,10022,912796,2/17/16,2/1/19,1/31/22,40.68944,-73.93444,"(40.68944, -73.93444)"
1297644,"FARM DISTILLER ""D""",207,DD,New York City,1,NEW YORK,OUR/NEW YORK VODKA LLC,OUR/NEW YORK,151 W 26TH ST,,NEW YORK,NY,10001,882778,4/23/18,4/23/18,3/31/21,40.74573,-73.99335,"(40.74573, -73.99335)"
1295732,HOTEL LIQUOR,242,HL,New York City,1,NEW YORK,444 TENTH F&B LLC,THE HUDSON BAR ROOM,444 10TH AVE,,NEW YORK,NY,10001,841442,2/14/17,2/14/17,1/31/19,40.75506,-73.99871,"(40.75506, -73.99871)"
1023437,HOTEL LIQUOR,242,HL,New York City,1,NEW YORK,"SHERRY NETHERLAND INC,THE",THE SHERRY NETHERLAND HOTEL,781 5TH AVENUE,,NEW YORK,NY,10022,872029,,3/1/17,2/28/19,40.76443527,-73.97281224,"(40.7644352724, -73.9728122446)"
1023383,HOTEL LIQUOR,242,HL,New York City,1,NEW YORK,SILVER AUTUMN HOTEL N Y CORPORATION LTD,WARWICK NEW YORK HOTEL,65 W 54TH STREET,,NEW YORK,NY,10019,871295,,3/1/17,2/28/19,40.76196935,-73.97738399,"(40.7619693496, -73.9773839938)"
1296144,HOTEL LIQUOR,242,HL,New York City,1,NEW YORK,NYC HOSPITALITY SERVICES LLC,HYATT HOUSE NEW YORK/CHELSEA,815 AVENUE OF THE AMERICAS,,NEW YORK,NY,10001,870646,3/15/17,3/15/17,2/28/19,40.61495,-73.96607,"(40.61495, -73.96607)"
1292790,HOTEL LIQUOR,242,HL,New York City,1,NEW YORK,NEW YORK MIDTOWN HOTEL LLC & GRGNY2 LLC,LUMA HOTEL - TIMES SQ/ORTZI RESTAURANT & BAR,120 W 41ST ST,,NEW YORK,NY,10036,861639,4/4/17,4/4/17,3/31/19,40.71161,-74.01497,"(40.71161, -74.01497)"
1299505,HOTEL LIQUOR,242,HL,New York City,1,NEW YORK,WASHINGTON JEFFERSON HOTEL LLC,,318 W 51ST ST,,NEW YORK,NY,10019,861674,4/13/17,4/13/17,3/31/19,40.76326,-73.98671,"(40.76326, -73.98671)"
1298196,HOTEL LIQUOR,242,HL,New York City,1,NEW YORK,"215 CHRYSTIE LLC,IS CHRYSTIE ST MANAGEMENT LLC &",VS-CHRYSTIE LLC; DBA: THE PUBLIC NEW YORK,215 CHRYSTIE ST,,NEW YORK,NY,10002,861710,4/25/17,4/25/17,3/31/19,40.72251,-73.99162,"(40.72251, -73.99162)"
1300384,HOTEL LIQUOR,242,HL,New York City,1,NEW YORK,"BRIDGEVIEW HOTEL LLC,DJD 50 BOWERY LLC&JOIE DE VIV",#NAME?,50 BOWERY,LOBBY LEVEL,NEW YORK,NY,10013,861809,5/12/17,5/12/17,4/30/19,40.71582,-73.99656,"(40.71582, -73.99656)"
1023300,HOTEL LIQUOR,242,HL,New York City,1,NEW YORK,THE MERCER I LLC,& MERCER KITCHEN LLC,147 MERCER ST,AKA 99 PRINCE STREET,NEW YORK,NY,10012,874282,,6/1/17,5/31/19,40.72479934,-73.99853309,"(40.724799343, -73.9985330904)"
1299324,HOTEL LIQUOR,242,HL,New York City,1,NEW YORK,NEW YORK LESSEE LLC AND HILTON MANAGEMENT LLC,NEW YORK HILTON MIDTOWN,1335 AVENUE OF THE AMERICAS,,NEW YORK,NY,10019,877128,7/18/17,7/18/17,6/30/19,40.76245,-73.97863,"(40.76245, -73.97863)"
1023402,HOTEL LIQUOR,242,HL,New York City,1,NEW YORK,CITILIGHTS CAFE INC,,500 E 62ND STREET,,NEW YORK,NY,10021,876618,,8/1/17,7/31/19,40.76047332,-73.95835495,"(40.7604733242, -73.9583549511)"
1023327,HOTEL LIQUOR,242,HL,New York City,1,NEW YORK,FITZPATRICK MGT NORTH AMERICA LLC,& HOTEL GRAND CENTRAL LLC,141 EAST 44TH STREET,,NEW YORK,NY,10017,876928,,8/1/17,7/31/19,40.75247223,-73.97435801,"(40.7524722262, -73.9743580125)"
1023278,HOTEL LIQUOR,242,HL,New York City,1,NEW YORK,STANFORD NEW YORK LLC,HOTEL STANFORD,43 WEST 32ND STREET,2ND FL,NEW YORK,NY,10001,876738,,8/1/17,7/31/19,40.74814229,-73.987714,"(40.7481422927, -73.9877140028)"
1295928,HOTEL LIQUOR,242,HL,New York City,1,NEW YORK,44 W 29 LLC,MADE HOTEL/ FERRIS/ PAPER COFFEE/ GOOD BEHAVIOR,44 W 29TH ST,,NEW YORK,NY,10001,862242,8/18/17,8/18/17,7/31/19,40.74631,-73.98948,"(40.74631, -73.98948)"
1303653,HOTEL LIQUOR,242,HL,New York City,1,NEW YORK,44TH STREET HOTEL LESSEE LP & HIGHGATE HOTELS LP,ROYALTON NEW YORK,44 W 44TH ST,,NEW YORK,NY,10036,862345,9/11/17,9/11/17,8/31/19,40.75564,-73.98223,"(40.75564, -73.98223)"
1300479,HOTEL LIQUOR,242,HL,New York City,1,NEW YORK,LOEWS REGENCY NY HOTEL LLC,LOEWS REGENCY HOTEL,540 PARK AVE,,NEW YORK,NY,10065,862352,9/12/17,9/12/17,8/31/19,40.76441,-73.96904,"(40.76441, -73.96904)"
1302819,HOTEL LIQUOR,242,HL,New York City,1,NEW YORK,485 SEVENTH AVE ASSOC LLC & SEVENTH AVE HOSP LLC,MOXY TIMES SQUARE,485 7TH AVE,,NEW YORK,NY,10018,862411,9/20/17,9/20/17,8/31/19,40.75238,-73.98939,"(40.75238, -73.98939)"
1303281,HOTEL LIQUOR,242,HL,New York City,1,NEW YORK,444 PARK AVENUE SOUTH ASSOCIATES LLC,MONDRIAN PARK AVENUE,444 PARK AVE S,,NEW YORK,NY,10016,877380,9/20/17,9/20/17,8/31/19,40.7448,-73.98324,"(40.7448, -73.98324)"
1301467,HOTEL LIQUOR,242,HL,New York City,1,NEW YORK,"AI IV LLC, AI OPERATING IV LLC & AI MANAGER IV LLC",HILTON GARDEN INN,6 WATER ST,,NEW YORK,NY,10004,877386,9/21/17,9/21/17,8/31/19,40.70289,-74.01229,"(40.70289, -74.01229)"
1299517,HOTEL LIQUOR,242,HL,New York City,1,NEW YORK,47TH STREET MANAGEMENT CO LLC,HOTEL EDISON,228 W 47TH ST,,NEW YORK,NY,10036,862444,9/26/17,9/26/17,8/31/19,40.75972,-73.98612,"(40.75972, -73.98612)"
1023308,HOTEL LIQUOR,242,HL,New York City,1,NEW YORK,KITANO ARMS CORP,HOTEL KITANO,66 PARK AVENUE,,NEW YORK,NY,10016,881868,,10/1/17,9/30/19,40.74964683,-73.97967673,"(40.7496468276, -73.9796767338)"
1302818,HOTEL LIQUOR,242,HL,New York City,1,NEW YORK,SNRP WEST 37 LLC & BALLINTEER CORP,HILTON GARDEN INN NEW YORK/TIMES SQUARE SOUTH,326 330 W 37TH ST,,NEW YORK,NY,10018,862511,10/11/17,10/11/17,9/30/19,0,0,"(0.0, 0.0)"
1023396,HOTEL LIQUOR,242,HL,New York City,1,NEW YORK,WEST 57TH HOTEL L P,THE INN ON 57TH STEET,426 440 W 57TH ST,,NEW YORK,NY,10019,883292,,11/1/17,10/31/19,40.76840731,-73.98688836,"(40.7684073067, -73.9868883583)"
1023346,HOTEL LIQUOR,242,HL,New York City,1,NEW YORK,GRANITE PARK LLC,COURTYARD MARRIOTT TIME SQ,114 W 40TH ST,,NEW YORK,NY,10018,882412,,11/1/17,10/31/19,40.75419617,-73.98658424,"(40.7541961687, -73.98658424)"
1305186,HOTEL LIQUOR,242,HL,New York City,1,NEW YORK,TGANYC LLC,TGANYC,320 W 36TH ST,,NEW YORK,NY,10018,862684,11/28/17,11/28/17,10/31/19,40.75385,-73.99367,"(40.75385, -73.99367)"
1302891,HOTEL LIQUOR,242,HL,New York City,1,NEW YORK,23 LEXINGTON TENANT; FREEHAND HOTEL CO; GUEST LAB,NYC; CPT HADDOCK; HAPPY PLACES GRAMERCY (LLCS),23 LEXINGTON AVE,,NEW YORK,NY,10010,862828,12/28/17,12/28/17,11/30/19,40.73981,-73.98436,"(40.73981, -73.98436)"
1289151,HOTEL LIQUOR,242,HL,New York City,1,NEW YORK,"88 MADISON HOTEL FEE OWNER LLC, 88 MADISON HOTEL",OPERATOR LLC & JAMES HOTEL MGMT COMPANY LLC,22 E 29TH ST,,NEW YORK,NY,10016,881125,1/14/16,1/1/18,12/31/19,40.74464,-73.98551,"(40.74464, -73.98551)"
1304218,HOTEL LIQUOR,242,HL,New York City,1,NEW YORK,6037 PROPERTY LLC & POLLIN MILLER HOSP STRAT INC,EMBASSY SUITES NEW YORK - MIDTOWN MANHATTAN,60 W 37TH ST,,NEW YORK,NY,10018,862858,1/4/18,1/4/18,12/31/19,40.75128,-73.9856,"(40.75128, -73.9856)"
1291145,HOTEL LIQUOR,242,HL,New York City,1,NEW YORK,LAM PLATT ST HOTEL LLC & PLATT ST OPERATING CORP,FOUR POINTS BY SHERATON DOWNTOWN FINANCIAL DISTRIC,4 10 PLATT ST,AKA 6 PLATT ST,NEW YORK,NY,10038,883586,2/2/16,2/1/18,1/31/20,0,0,"(0.0, 0.0)"
1307252,HOTEL LIQUOR,242,HL,New York City,1,NEW YORK,TRIBECA HOTEL LLC TRIBECA LOBBY BAR LLC PRIMO MGMT,LLC SERAFINA TRIBECA REST LLC DBA: FREDERICK HOTEL,95 W BROADWAY,,NEW YORK,NY,10007,863093,2/26/18,2/26/18,1/31/20,40.71566,-74.0089,"(40.71566, -74.0089)"
1287685,HOTEL LIQUOR,242,HL,New York City,1,NEW YORK,35TH & 7TH RESTAURANT MANAGEMENT LLC,MARRIOTT RENAISSANCE PENN STATION; ROCK & REILLY'S,218 W 35TH ST,,NEW YORK,NY,10001,884745,3/2/16,3/1/18,2/29/20,40.75177,-73.99103,"(40.75177, -73.99103)"
1292125,HOTEL LIQUOR,242,HL,New York City,1,NEW YORK,206 WEST HOTEL LLC & TSQB41 LLC,HOTEL SHOCARD TIMES SQUARE/GLEASON'S TAVERN,206 W 41ST ST,,NEW YORK,NY,10036,884448,3/17/16,3/1/18,2/29/20,40.75551,-73.98801,"(40.75551, -73.98801)"
1102035,HOTEL LIQUOR,242,HL,New York City,1,NEW YORK,20 EAST 76TH STREET CO LLC,SURREY HOTEL,20 E 76TH STREET,,NEW YORK,NY,10021,884694,,3/1/18,2/29/20,40.77452767,-73.96408926,"(40.7745276694, -73.9640892635)"
1293225,HOTEL LIQUOR,242,HL,New York City,1,NEW YORK,HHC 33 PECK SLIP HOLDINGS LLC&MR C MNGR SEAPORT LL,MR. C SEAPORT,33 PECK SLIP,LOUNGE & HOTEL LOCATION,NEW YORK,NY,10038,863156,3/15/18,3/15/18,2/28/20,40.70798,-74.00144,"(40.70798, -74.00144)"
1306380,HOTEL LIQUOR,242,HL,New York City,1,NEW YORK,"THOR JAMES HOTEL LEASECO LLC, HIGHGATE HOTELS LP,",6 GRAND LLC & DJL BAR LLC-THE JAMES NEW YORK SOHO,23 27 GRAND ST,,NEW YORK,NY,10013,879896,3/20/18,3/20/18,2/29/20,0,0,"(0.0, 0.0)"
1291774,HOTEL LIQUOR,242,HL,New York City,1,NEW YORK,MARRIOTT RESORTS HOSPITALITY CORPORATION,"MARRIOTT VACATION CLUB PULSE NYC, STRAND BISTRO",33 W 37TH ST,,NEW YORK,NY,10018,885671,4/21/16,4/1/18,3/31/20,40.75131,-73.9849,"(40.75131, -73.9849)"
1293480,HOTEL LIQUOR,242,HL,New York City,1,NEW YORK,"TRIBECA ASCOTT LLC, TRIBECA TRS LLC, FC CANAL MGMT","LLC, ELIO & SONS LLC  SHERATON TRIBECA NY HOTEL",370 CANAL ST,,NEW YORK,NY,10013,885625,4/29/16,4/1/18,3/31/20,40.72099,-74.00424,"(40.72099, -74.00424)"
1289518,HOTEL LIQUOR,242,HL,New York City,1,NEW YORK,LEXINGTON AVE HOTEL LP & MARRIOTT HOTEL SVCS INC,NEW YORK MARRIOTT EAST SIDE HOTEL,525 LEXINGTON AVE,,NEW YORK,NY,10017,886695,5/10/16,5/1/18,4/30/20,40.68902,-73.94081,"(40.68902, -73.94081)"
1291675,HOTEL LIQUOR,242,HL,New York City,1,NEW YORK,BLACK PUMICE E 2015 LLC & HILTON MANAGEMENTLLC,THE LONDON NYC,151 W 54TH ST,,NEW YORK,NY,10019,886791,5/13/16,5/1/18,4/30/20,40.7633,-73.98049,"(40.7633, -73.98049)"
1304332,HOTEL LIQUOR,242,HL,New York City,1,NEW YORK,LODGING CONCESSIONS LLC & BOQUERIA WESTSIDE LLC,AC HOTEL NEW YORK TIMES SQUARE,260 W 40TH ST,,NEW YORK,NY,10018,887051,5/9/18,5/9/18,4/30/20,40.7554,-73.98964,"(40.7554, -73.98964)"
1307262,HOTEL LIQUOR,242,HL,New York City,1,NEW YORK,FLATIRONHOTEL OPERATIONS LLC,FLATIRON HOTEL,9 W 26TH ST,,NEW YORK,NY,10010,887516,6/12/18,6/12/18,5/31/20,40.74402,-73.98931,"(40.74402, -73.98931)"
1307872,HOTEL LIQUOR,242,HL,New York City,1,NEW YORK,"NESBIT HOTEL LLC,LEONELLI REST LLC&INVESTHOSPITLTY","EVELYN HOTEL, BENNO REST, LEONELLI TABERNA REST",7 E 27TH ST,,NEW YORK,NY,10016,887590,6/26/18,6/26/18,5/31/20,40.74388,-73.98705,"(40.74388, -73.98705)"
1289098,HOTEL LIQUOR,242,HL,New York City,1,NEW YORK,741 EIGHTH AVENUE OWNERS LLC,RIU PLAZA NY TIMES SQ HOTEL; FASHION BAR & REST,305 W 46TH STREET,,NEW YORK,NY,10036,887666,3/29/16,7/12/18,2/29/20,40.75996,-73.98786,"(40.75996, -73.98786)"
1290887,HOTEL LIQUOR,242,HL,New York City,1,NEW YORK,INNSIDE VENTURES LLC & 132 W27TH ST LLC,AS CO-LICENSEE/ DBA: INNSIDE NEW YORK NOMAD,132-142 W 27TH ST,,NEW YORK,NY,10001,887730,3/9/16,7/25/18,2/29/20,40.74589,-73.99223,"(40.74589, -73.99223)"
1308717,HOTEL LIQUOR,242,HL,New York City,1,NEW YORK,701 SEVENTH PROPERTY OWNER LLC,NEW YORK EDITION TIMES SQUARE,701 7TH AVE,165-179 W 47 ST; 20 TIMES SQ,NEW YORK,NY,10036,887732,7/25/18,7/25/18,6/30/20,40.75933,-73.98433,"(40.75933, -73.98433)"
1294799,HOTEL LIQUOR,242,HL,New York City,1,NEW YORK,GRANITE 1717 HOTEL LLC/INTERSATE MANAGEMENT CO LLC,COURTYARD BY MARRIOTT-CENTRAL PARK / RESIDENCE INN,1717 BROADWAY,,NEW YORK,NY,10019,892878,8/4/16,8/1/18,7/31/20,40.68353,-73.91132,"(40.68353, -73.91132)"
1286223,HOTEL LIQUOR,242,HL,New York City,1,NEW YORK,RENWICK FOOD COMPANY LLC & HM FOOD TRADE LLC,ARLO HUDSON SQUARE; HAROLD'S MEAT+THREE,231 HUDSON ST,AKA 503 CANAL ST & 2 RENWICK,NEW YORK,NY,10013,893114,8/17/16,8/1/18,7/31/20,40.72446,-74.00822,"(40.72446, -74.00822)"
1291914,HOTEL LIQUOR,242,HL,New York City,1,NEW YORK,SRNY ASSOCIATES LLC,,33 39 W 55TH ST,,NEW YORK,NY,10019,893290,8/29/16,8/1/18,7/31/20,0,0,"(0.0, 0.0)"
1291902,HOTEL LIQUOR,242,HL,New York City,1,NEW YORK,RENAISSANCE HOTEL MANAGEMENT COMPANY LLC,RENAISSANCE NEW YORK HOTEL,2 TIMES SQ,AKA 714 7TH AVE,NEW YORK,NY,10036,893089,8/30/16,8/1/18,7/31/20,40.75663,-73.98611,"(40.75663, -73.98611)"
1023348,HOTEL LIQUOR,242,HL,New York City,1,NEW YORK,BRITTANIA 54TH HOTEL CORP,,1701 BROADWAY,AKA 230 W 54TH STREET,NEW YORK,NY,10019,893636,,8/1/18,7/31/20,40.76378012,-73.98265772,"(40.7637801224, -73.9826577183)"
1299766,HOTEL LIQUOR,242,HL,New York City,1,NEW YORK,POD TS F&B LLC & POS TS F&B MAJOR MANAGEMENT LLC,,400 W 42ND ST,,NEW YORK,NY,10036,887322,2/16/18,8/13/18,1/31/20,40.75845,-73.99308,"(40.75845, -73.99308)"
1309950,HOTEL LIQUOR,242,HL,New York City,1,NEW YORK,HIGHGATE HOTELS LP & GERBER GROUP BLUE NY LLC,"THE MAXWELL, MAX BAR & HEARTBEAT",541 LEXINGTON AVE,,NEW YORK,NY,10022,887364,8/23/18,8/23/18,7/31/20,40.75625,-73.97237,"(40.75625, -73.97237)"
1283103,HOTEL LIQUOR,242,HL,New York City,1,NEW YORK,5 BEEKMAN HTL OWN LLC; 5 BEEKMAN MASTER TENANT LLC,"THOMPSON HTL LL; CRAFT BEEKMAN LLC  ""TEMPLE COURT""",5 BEEKMAN ST,,NEW YORK,NY,10038,894081,9/6/16,9/1/18,8/31/20,40.71136,-74.00672,"(40.71136, -74.00672)"
1294450,HOTEL LIQUOR,242,HL,New York City,1,NEW YORK,FS NY F&B COMPANY INC,FOUR SEASONS HOTEL FOOD & BEVERAGE SERVICES,27 BARCLAY ST,,NEW YORK,NY,10007,893954,9/7/16,9/1/18,8/31/20,0,0,"(0.0, 0.0)"
1023466,HOTEL LIQUOR,242,HL,New York City,1,NEW YORK,IROQUOIS HOTEL LLC,IROQUOIS HOTEL,49 W 44TH STREET,,NEW YORK,NY,10036,894395,,9/1/18,8/31/20,40.75547396,-73.98146738,"(40.7554739601, -73.9814673801)"
1310647,HOTEL LIQUOR,242,HL,New York City,1,NEW YORK,OSIB BOWERY ST OPERATOR LLC & OSIB BCRE BOWERY ST,HOLDINGS LLC DBA: CITIZENM NEW YORK BOWERY HOTEL,185 187 189 191 BOWERY,,NEW YORK,NY,10003,887934,9/12/18,9/12/18,8/31/20,0,0,"(0.0, 0.0)"
1309768,HOTEL LIQUOR,242,HL,New York City,1,NEW YORK,YORK STREET LESSEE DE LLC;YORK STREET LLC&HERSHA H,HILTON GARDEN INN TRIBECA,39 AVENUE OF THE AMERICAS,,NEW YORK,NY,10013,887985,9/26/18,9/26/18,8/31/20,40.72058,-74.00526,"(40.72058, -74.00526)"
1296720,HOTEL LIQUOR,242,HL,New York City,1,NEW YORK,SCCQ ROCK HOTEL LLC,CLUB QUARTERS OPPOSITE ROCKEFELLER CENTER,25 W 51ST ST,,NEW YORK,NY,10019,895129,10/18/16,10/1/18,9/30/20,40.7599,-73.97823,"(40.7599, -73.97823)"
1296717,HOTEL LIQUOR,242,HL,New York City,1,NEW YORK,SCCQ MIDTOWN LLC,CLUB QUARTERS MIDTOWN,40 W 45TH ST,,NEW YORK,NY,10036,895128,10/18/16,10/1/18,9/30/20,40.75604,-73.98125,"(40.75604, -73.98125)"
1309816,HOTEL LIQUOR,242,HL,New York City,1,NEW YORK,CP MAIDEN LANE LLC,AC HOTEL NEW YORK CITY DOWNTOWN,151 MAIDEN LN,,NEW YORK,NY,10038,898027,10/9/18,10/9/18,9/30/20,40.70582,-74.00545,"(40.70582, -74.00545)"
1293293,HOTEL LIQUOR,242,HL,New York City,1,NEW YORK,SQUARE SKY HOSPITALITY LLC,HOTEL GRAND UNION,34 E 32ND ST,,NEW YORK,NY,10016,898035,7/20/16,10/11/18,6/30/20,40.7461,-73.98326,"(40.7461, -73.98326)"
1294762,HOTEL LIQUOR,242,HL,New York City,1,NEW YORK,NOGA RESTAURANT LLC & 119 ORCHARD PROP INC.,SAGO HOTEL,119 ORCHARD ST AKA120 ALLEN ST,,NEW YORK,NY,10002,898606,8/24/16,10/12/18,7/31/20,40.71924,-73.98973,"(40.71924, -73.98973)"
1307730,HOTEL LIQUOR,242,HL,New York City,1,NEW YORK,143 FULTON STREET DEVELOPMENT OWNER LLC & GOOD,GUYS HOSPITALITY LLC  DBA: MOXY NYC DOWNTOWN,26 ANN ST,,NEW YORK,NY,10038,888079,10/16/18,10/16/18,9/30/20,40.71072,-74.00773,"(40.71072, -74.00773)"
1305044,HOTEL LIQUOR,242,HL,New York City,1,NEW YORK,"310 GROUP LLC, ALIZ GROUP LLC & CRESCENT HOTELS &","RESORTS LLC, OPERATOR DBA: ALIZ HOTEL",310 W 40TH ST,,NEW YORK,NY,10018,888129,10/10/18,10/31/18,9/30/20,40.75604,-73.9911,"(40.75604, -73.9911)"
1294594,HOTEL LIQUOR,242,HL,New York City,1,NEW YORK,AYYA F&B LLC AND DJDATARLONOMAD LLC,MASSONI; ARLO NOMAD,11 E 31ST ST,,NEW YORK,NY,10016,897788,11/1/16,11/1/18,10/31/20,40.65044,-73.94839,"(40.65044, -73.94839)"
1292523,HOTEL LIQUOR,242,HL,New York City,1,NEW YORK,145 EAST 47TH STREET LLC & VUTHAJ LLC,ALLORA,145 E 47TH ST,,NEW YORK,NY,10017,898823,11/14/16,11/1/18,10/31/20,40.75432,-73.97277,"(40.75432, -73.97277)"
1295262,HOTEL LIQUOR,242,HL,New York City,1,NEW YORK,PONTE GADEA PARK LLC & CITUSA PARK AVENUE LLC,70 PARK AVENUE HOTEL AND SILVER LEAF,70 PARK AVE,,NEW YORK,NY,10016,897863,11/14/16,11/1/18,10/31/20,40.74986,-73.97963,"(40.74986, -73.97963)"
1297427,HOTEL LIQUOR,242,HL,New York City,1,NEW YORK,NY BROADWAY HOTEL OWNER LLC & HIGHGATE HOTELS LP,NYLO HOTEL/LOCL BAR,2170 2178 BROADWAY,,NEW YORK,NY,10024,897765,11/22/16,11/1/18,10/31/20,0,0,"(0.0, 0.0)"
1023330,HOTEL LIQUOR,242,HL,New York City,1,NEW YORK,HYATT EQUITIES LLC,GRAND HYATT NEW YORK,109 E 42ND STREET,,NEW YORK,NY,10017,898943,,11/1/18,10/31/20,40.75180348,-73.9768036,"(40.751803477, -73.9768035989)"
1299231,HOTEL LIQUOR,242,HL,New York City,1,NEW YORK,510 W42 HOTEL OPERATING LLC & CACHET HOTEL GROUP L,TREADWELL PARK,510 W 42ND ST,,NEW YORK,NY,10036,898147,8/28/17,11/8/18,7/31/19,40.75985,-73.99639,"(40.75985, -73.99639)"
1312910,HOTEL LIQUOR,242,HL,New York City,1,NEW YORK,119 WEST 45TH ST HOTEL INC,MERRION ROW,119 W 45TH ST,,NEW YORK,NY,10036,888245,11/28/18,11/28/18,10/31/20,40.75723,-73.98355,"(40.75723, -73.98355)"
1297996,HOTEL LIQUOR,242,HL,New York City,1,NEW YORK,LIFE HOTEL ONE LLC & EDC 31 LLC,HENRY AT LIFE HOTEL,19 W 31ST ST,,NEW YORK,NY,10001,888249,11/14/17,11/30/18,10/31/19,40.74712,-73.98707,"(40.74712, -73.98707)"
1293305,HOTEL LIQUOR,242,HL,New York City,1,NEW YORK,EVEN HOTEL GRAND CENTRAL LLC&IHG MGMNT(MARYLAND),EVEN HOTEL NEW YORK-MIDTOWN EAST,219 E 44TH ST,,NEW YORK,NY,10017,899209,12/5/16,12/1/18,11/30/20,40.75173,-73.97244,"(40.75173, -73.97244)"
1023427,HOTEL LIQUOR,242,HL,New York City,1,NEW YORK,JOLLY TINKER INC,FITZPATRICK MANHATTAN HOTEL,687 LEXINGTON AVENUE,,NEW YORK,NY,10022,899647,,12/1/18,11/30/20,40.760527,-73.9693335,"(40.7605270025, -73.9693335015)"
1023344,HOTEL LIQUOR,242,HL,New York City,1,NEW YORK,UNIT 3 CORPORATION,ROGER SMITH HOTEL,501 LEXINGTON AVENUE,,NEW YORK,NY,10017,898840,,12/1/18,11/30/20,40.7546076,-73.97364837,"(40.754607596, -73.9736483686)"
1023277,HOTEL LIQUOR,242,HL,New York City,1,NEW YORK,NEW YORKER HOTEL MANAGEMENT COMPANY INC,,481 8TH AVENUE,STE 633,NEW YORK,NY,10001,899370,,12/1/18,11/30/20,40.75224037,-73.99351242,"(40.7522403664, -73.9935124177)"
1312430,HOTEL LIQUOR,242,HL,New York City,1,NEW YORK,16 EAST 32 CORP,AVALON HOTEL,16 E 32ND ST,,NEW YORK,NY,10016,898200,12/6/18,12/6/18,11/30/20,40.74658,-73.98431,"(40.74658, -73.98431)"
1308874,HOTEL LIQUOR,242,HL,New York City,1,NEW YORK,HIGHGATE HOTELS LP & URBAN COMMONS 2 WEST LL LLC,THE WAGNER,2 WEST ST,,NEW YORK,NY,10004,888326,6/25/18,12/19/18,5/31/20,40.70554,-74.01726,"(40.70554, -74.01726)"
1298591,HOTEL LIQUOR,242,HL,New York City,1,NEW YORK,CAFE AKA WALL STREET LLC AND FOOD FIRST LLC,BLUE RIBBON FEDERAL GRILL,84 WILLIAM ST,,NEW YORK,NY,10038,899838,1/13/17,1/1/19,12/31/20,40.70803,-74.00785,"(40.70803, -74.00785)"
1298792,HOTEL LIQUOR,242,HL,New York City,1,NEW YORK,HOTEL HOGAN LLC & FORTUNA 37 WEST 24TH STREET LLC,HOTEL HENRI,37 W 24TH ST,,NEW YORK,NY,10010,900128,1/25/17,1/1/19,12/31/20,40.74281,-73.99039,"(40.74281, -73.99039)"
1298089,HOTEL LIQUOR,242,HL,New York City,1,NEW YORK,NYHK WEST 40 LLC/346 WEST 40TH ST RESTAURANT LLC,DOUBLETREE BY HILTON NY-TIMES SQ W/TRANZIT/HIGHBAR,346 354 W 40TH ST,,NEW YORK,NY,10018,900199,1/31/17,1/1/19,12/31/20,0,0,"(0.0, 0.0)"
1298857,HOTEL LIQUOR,242,HL,New York City,1,NEW YORK,GARDEN 35TH ST LLC & INTERSTATE MGMT COMPANY LLC,HILTON GARDEN INN NEW YORK/WEST 35TH STREET,63 67 W 35TH ST,,NEW YORK,NY,10001,901145,2/17/17,2/1/19,1/31/21,0,0,"(0.0, 0.0)"
1299387,HOTEL LIQUOR,242,HL,New York City,1,NEW YORK,SCCQ DOWNTOWN LLC & MILJO LLC,CLUB QUARTERS/THE BAILEY,52 WILLIAM ST,,NEW YORK,NY,10005,901015,2/21/17,2/1/19,1/31/21,40.70678,-74.00904,"(40.70678, -74.00904)"
1299095,HOTEL LIQUOR,242,HL,New York City,1,NEW YORK,CYH MANHATTAN LLC & HIGHGATE HOTELS LP AS MANAGER,STEWART HOTEL,371 7TH AVE,,NEW YORK,NY,10001,900860,2/22/17,2/1/19,1/31/21,40.74884,-73.99197,"(40.74884, -73.99197)"
1295750,HOTEL LIQUOR,242,HL,New York City,1,NEW YORK,56TH STREET HOTEL LLC,THE WHITBY HOTEL,18 W 56TH ST,,NEW YORK,NY,10019,900749,2/27/17,2/1/19,1/31/21,40.7627,-73.97566,"(40.7627, -73.97566)"
1023347,HOTEL LIQUOR,242,HL,New York City,1,NEW YORK,HOTEL CASABLANCA INC,HOTEL CASABLANCA,147 51 W 43RD STREET,,NEW YORK,NY,10036,900966,,2/1/19,1/31/21,40.75615655,-73.98496264,"(40.7561565497, -73.9849626375)"
1296268,HOTEL WINE,342,HW,New York City,1,NEW YORK,MANHATTAN HOTEL MANAGEMENT LLC,COMFORT INN,154 MADISON ST,,NEW YORK,NY,10002,911100,1/19/17,1/1/19,12/31/20,40.71235,-73.99271,"(40.71235, -73.99271)"
1300848,IMPORTER,208,IL,New York City,1,NEW YORK,SUNBELT BEVERAGE COMPANY LLC,,60 E 42ND ST,STE 1901A,NEW YORK,NY,10165,889246,4/26/17,4/26/17,3/31/20,40.75229,-73.97846,"(40.75229, -73.97846)"
1296436,MICRO BREWER,101,MI,New York City,1,NEW YORK,ANHEUSER BUSCH LLC,,119-125 W 24TH ST,,NEW YORK,NY,10011,903417,9/29/16,9/1/18,8/31/19,0,0,"(0.0, 0.0)"
1296436,MICRO BREWER,101,MI,New York City,1,NEW YORK,ANHEUSER BUSCH LLC,,119-125 W 24TH ST,,NEW YORK,NY,10011,903417,9/29/16,9/1/18,8/31/19,0,0,"(0.0, 0.0)"
1023230,O.P. ENTERTAINMENT,251,EL,New York City,1,NEW YORK,RANYST INC,NEW YORK STATE THEATRE,1886 BROADWAY,LINCOLN CENTER PLAZA,NEW YORK,NY,10023,900178,,2/1/19,1/31/21,40.77088804,-73.9817932,"(40.7708880429, -73.9817932006)"
1034198,O.P. FOOD AND BEV,252,TL,New York City,1,NEW YORK,980 REST INC,PARIS BLUES BAR,2021 7TH AVENUE,,NEW YORK,NY,10027,872265,,3/1/17,2/28/19,40.80636244,-73.95004719,"(40.8063624441, -73.9500471851)"
1034221,O.P. FOOD AND BEV,252,TL,New York City,1,NEW YORK,ROB TESS RESTAURANT CORP,REIF'S TAVERN,302 E 92ND STREET,,NEW YORK,NY,10128,871785,,3/1/17,2/28/19,40.78157591,-73.94887224,"(40.781575912, -73.9488722353)"
1034194,O.P. FOOD AND BEV,252,TL,New York City,1,NEW YORK,1291 PUB INC,J G MELON RESTAURANT,1291 3RD AVENUE,,NEW YORK,NY,10021,872047,,3/1/17,2/28/19,40.77110381,-73.95951078,"(40.771103806, -73.9595107792)"
1034212,O.P. FOOD AND BEV,252,TL,New York City,1,NEW YORK,140 WEST 43RD ST TAVERN INC,JIMMYS CORNER,140 W 44TH STREET,,NEW YORK,NY,10036,871289,,3/1/17,2/28/19,40.75672304,-73.98473266,"(40.7567230431, -73.9847326601)"
1034195,O.P. FOOD AND BEV,252,TL,New York City,1,NEW YORK,JOHN PHIL TAVERN CORP,PARNELLS,350 E 53RD STREET,,NEW YORK,NY,10022,871110,,3/1/17,2/28/19,40.75618664,-73.96598379,"(40.7561866376, -73.9659837851)"
1034146,O.P. FOOD AND BEV,252,TL,New York City,1,NEW YORK,TWINS PUB INC,,421 9TH AVENUE,,NEW YORK,NY,10001,870174,,3/1/17,2/28/19,40.75318633,-73.99653323,"(40.7531863265, -73.9965332284)"
1034184,O.P. FOOD AND BEV,252,TL,New York City,1,NEW YORK,VICSAM REST INC,TY'S BAR,114 116 CHRISTOPHER ST,,NEW YORK,NY,10014,871645,,3/1/17,2/28/19,40.73315188,-74.00541493,"(40.7331518846, -74.0054149266)"
1034180,O.P. FOOD AND BEV,252,TL,New York City,1,NEW YORK,GRANGIO RESTAURANT CORPORATION,MARIES CRISIS,59 GROVE STREET,,NEW YORK,NY,10014,8871172,,3/1/17,2/28/19,40.73312997,-74.00347743,"(40.7331299713, -74.0034774341)"
1034151,O.P. FOOD AND BEV,252,TL,New York City,1,NEW YORK,NEW YORK SHAKESPEARE FESTIVAL,NEWMAN  THEATER,425 LAFAYETTE STREET,,NEW YORK,NY,10003,871517,,3/1/17,2/28/19,,,
1034160,O.P. FOOD AND BEV,252,TL,New York City,1,NEW YORK,"PUSSYCAT LOUNGE INC,THE",,96 GREENWICH STREET,,NEW YORK,NY,10006,871591,,3/1/17,2/28/19,,,
1034176,O.P. FOOD AND BEV,252,TL,New York City,1,NEW YORK,EAR INN INC,,326 SPRING ST,,NEW YORK,NY,10013,872484,,3/8/17,2/28/19,40.72593342,-74.00923297,"(40.7259334181, -74.009232973)"
1110670,ON-PREMISES LIQUOR,252,OP,New York City,1,NEW YORK,C A P RESTAURANT CORP,ROSA'S PLACE RESTAURANT,301 W 48TH STREET,8TH & 9TH AVENUES,NEW YORK,NY,10036,870056,,2/1/17,1/31/19,40.76110278,-73.98701242,"(40.7611027826, -73.9870124217)"
1024042,ON-PREMISES LIQUOR,252,OP,New York City,1,NEW YORK,NATURAL TOFU RESTAURANT CORP,SEOUL GARDEN,34 W 32ND ST 2ND FLOOR,,NEW YORK,NY,10001,869815,,2/1/17,1/31/19,40.7480606,-73.9878183,"(40.7480606031, -73.9878182997)"
1027699,ON-PREMISES LIQUOR,252,OP,New York City,1,NEW YORK,EMPIRE SZECHUAN,NOODLE HOUSE INC,4041 49 BROADWAY,AKA 605 W 170TH STREET,NEW YORK,NY,10032,869963,,2/1/17,1/31/19,40.7065681,-74.01277553,"(40.7065681011, -74.0127755329)"
1025894,ON-PREMISES LIQUOR,252,OP,New York City,1,NEW YORK,T & T 130 PIZZA CORP,BELLA NAPOLI,130 MADISON AVENUE,,NEW YORK,NY,10016,869784,,2/1/17,1/31/19,,,
1111406,ON-PREMISES LIQUOR,252,OP,New York City,1,NEW YORK,THESPIAN THEATRE INC,CIRCLE IN THE SQUARE THEATRE,1633 BROADWAY,CORNER OF 50TH STREET,NEW YORK,NY,10019,870326,,2/1/17,1/31/19,,,
1295618,ON-PREMISES LIQUOR,252,OP,New York City,1,NEW YORK,CARRA LLC,DOG & BONE,338 3RD AVE,AKA 162 E 25TH ST NORTH UNIT2,NEW YORK,NY,10010,841404,2/2/17,2/2/17,1/31/19,40.74007,-73.98247,"(40.74007, -73.98247)"
1299323,ON-PREMISES LIQUOR,252,OP,New York City,1,NEW YORK,THIRD AVENUE FOOD CORP,TIVOLI CAFE,283 3RD AVE,,NEW YORK,NY,10010,841412,2/3/17,2/3/17,1/31/19,40.73819,-73.98339,"(40.73819, -73.98339)"
1024960,ON-PREMISES LIQUOR,252,OP,New York City,1,NEW YORK,SEVENTH AVENUE TOMATO INC,,209 7TH AVENUE,,NEW YORK,NY,10011,8871191,,2/3/17,1/31/19,,,
1298843,ON-PREMISES LIQUOR,252,OP,New York City,1,NEW YORK,LA MERIDIANA I LTD,NUMERO 28,176 2ND AVE,,NEW YORK,NY,10003,841427,2/8/17,2/8/17,1/31/19,40.73046,-73.98606,"(40.73046, -73.98606)"
1294631,ON-PREMISES LIQUOR,252,OP,New York City,1,NEW YORK,MMR FOOD INC,IMLI,1136 1ST AVE,,NEW YORK,NY,10065,841435,2/10/17,2/10/17,1/31/19,40.7617,-73.96023,"(40.7617, -73.96023)"
1297278,ON-PREMISES LIQUOR,252,OP,New York City,1,NEW YORK,ENTRECOTE WATTS LLC,LE RELAIS DE VENISE L'ENTRECOTE,15 WATTS ST,,NEW YORK,NY,10013,841440,2/13/17,2/13/17,1/31/19,40.72331,-74.00363,"(40.72331, -74.00363)"
1295275,ON-PREMISES LIQUOR,252,OP,New York City,1,NEW YORK,KATZ DELICATESSEN OF HOUSTON STREET INC,,205 E HOUSTON ST,,NEW YORK,NY,10002,841450,2/14/17,2/14/17,1/31/19,40.72842,-74.004,"(40.72842, -74.004)"
1299207,ON-PREMISES LIQUOR,252,OP,New York City,1,NEW YORK,315 RESTAURANT GROUP LLC,THIRD FLOOR,315 5TH AVE,3RD FL,NEW YORK,NY,10016,841479,2/21/17,2/21/17,1/31/19,40.74699,-73.9854,"(40.74699, -73.9854)"
1298819,ON-PREMISES LIQUOR,252,OP,New York City,1,NEW YORK,SUGAR FACTORY BROADWAY LLC,SUGAR FACTORY AMERICAN BRASSERIE,1991 BROADWAY,,NEW YORK,NY,10023,861504,2/27/17,2/22/17,1/31/19,40.7752,-73.98247,"(40.7752, -73.98247)"
1299595,ON-PREMISES LIQUOR,252,OP,New York City,1,NEW YORK,KROC REST CORP,BAR CATALINA,675A 9TH AVE,,NEW YORK,NY,10036,861509,2/28/17,2/28/17,1/31/19,40.76145,-73.99051,"(40.76145, -73.99051)"
1296067,ON-PREMISES LIQUOR,252,OP,New York City,1,NEW YORK,LADAMANYC INC,HEN PEN NYC,75 MAIDEN LN,STORE 3,NEW YORK,NY,10004,861510,2/28/17,2/28/17,1/31/19,40.70769,-74.00767,"(40.70769, -74.00767)"
1296545,ON-PREMISES LIQUOR,252,OP,New York City,1,NEW YORK,"DAME TAVERN INC, THE",THE CRAFTSMAN,3155 BROADWAY,,NEW YORK,NY,10027,861513,3/1/17,3/1/17,2/28/19,40.81466,-73.95938,"(40.81466, -73.95938)"
1294606,ON-PREMISES LIQUOR,252,OP,New York City,1,NEW YORK,GEMELLI RESTAURANT GROUP INC,IL RICCIO,152 E 79TH ST,,NEW YORK,NY,10075,861515,3/1/17,3/1/17,2/28/19,40.77472,-73.95874,"(40.77472, -73.95874)"
1298456,ON-PREMISES LIQUOR,252,OP,New York City,1,NEW YORK,798 NINTH RESTAURANT LLC,THE MEATBALL SHOP,798 9TH AVE,,NEW YORK,NY,10019,861517,3/1/17,3/1/17,2/28/19,40.7652,-73.98748,"(40.7652, -73.98748)"
1027427,ON-PREMISES LIQUOR,252,OP,New York City,1,NEW YORK,AWASH ETHIOPIAN RESTAURANT INC,,947 AMSTERDAM AVENUE,,NEW YORK,NY,10025,871049,,3/1/17,2/28/19,40.80063701,-73.96545191,"(40.8006370065, -73.9654519115)"
1110357,ON-PREMISES LIQUOR,252,OP,New York City,1,NEW YORK,TWO BIG BOYS INC,POSH,405 WEST 51ST STREET,,NEW YORK,NY,10019,870325,,3/1/17,2/28/19,40.76423268,-73.98861779,"(40.7642326753, -73.9886177868)"
1026424,ON-PREMISES LIQUOR,252,OP,New York City,1,NEW YORK,TBB TAVERN CORPORATION,HOUSE OF BREWS,302 W 51ST STREET,,NEW YORK,NY,10019,871228,,3/1/17,2/28/19,40.76291722,-73.98580955,"(40.7629172181, -73.9858095501)"
1026399,ON-PREMISES LIQUOR,252,OP,New York City,1,NEW YORK,SHANGHAI CITY CORP,SHANGHAI CITY,24 W 56TH STREET,,NEW YORK,NY,10019,871548,,3/1/17,2/28/19,40.76257005,-73.97528808,"(40.7625700508, -73.9752880836)"
1027893,ON-PREMISES LIQUOR,252,OP,New York City,1,NEW YORK,PONGSRI THAI RESTAURANT CORP,,244 W 48TH STREET,,NEW YORK,NY,10036,871850,,3/1/17,2/28/19,40.76048437,-73.98583596,"(40.7604843697, -73.9858359618)"
1026470,ON-PREMISES LIQUOR,252,OP,New York City,1,NEW YORK,142 WEST 49TH ST REST CORP,PASTA LOVERS TRATTORIA,142 W 49TH STREET,,NEW YORK,NY,10019,871616,,3/1/17,2/28/19,40.7592928,-73.98106809,"(40.7592928019, -73.9810680906)"
1027843,ON-PREMISES LIQUOR,252,OP,New York City,1,NEW YORK,L & J BRAZIL RESTAURANT INC,VIA BRAZIL,34 36 W 46TH STREET,,NEW YORK,NY,10036,872071,,3/1/17,2/28/19,40.75643531,-73.98013525,"(40.7564353073, -73.9801352549)"
1025956,ON-PREMISES LIQUOR,252,OP,New York City,1,NEW YORK,AZUSA OF JAPAN INC,AZUSA OF JAPAN,3 E 44TH STREET,,NEW YORK,NY,10017,872188,,3/1/17,2/28/19,40.75474123,-73.97972631,"(40.7547412323, -73.9797263136)"
1026100,ON-PREMISES LIQUOR,252,OP,New York City,1,NEW YORK,ABIGAELS ON BROADWAY INC,ABIGAELS ON BROADWAY,1407 BROADWAY,,NEW YORK,NY,10018,870176,,3/1/17,2/28/19,40.75343946,-73.98719364,"(40.7534394645, -73.9871936393)"
1025754,ON-PREMISES LIQUOR,252,OP,New York City,1,NEW YORK,BALBONA RESTAURANT CORP,SAMS PLACE,132 E 39TH STREET,,NEW YORK,NY,10016,871327,,3/1/17,2/28/19,40.74945691,-73.97739967,"(40.7494569067, -73.9773996651)"
1025904,ON-PREMISES LIQUOR,252,OP,New York City,1,NEW YORK,VILLA BERULIA INC,VILLA BERULIA RESTAURANT,107 E 34TH STREET,,NEW YORK,NY,10016,871236,,3/1/17,2/28/19,40.74696114,-73.98089535,"(40.7469611401, -73.9808953493)"
1025081,ON-PREMISES LIQUOR,252,OP,New York City,1,NEW YORK,DYNAMIC MUSIC CORP,OLIVE TREE CAFE & COMEDY CELLAR,117 MACDOUGAL ST,,NEW YORK,NY,10012,871861,,3/1/17,2/28/19,40.73015394,-74.00042651,"(40.7301539396, -74.0004265075)"
1025379,ON-PREMISES LIQUOR,252,OP,New York City,1,NEW YORK,"CUPPING ROOM CAFE INC,THE",CUPPING ROOM CAFE,359 W BROADWAY,,NEW YORK,NY,10013,871844,,3/1/17,2/28/19,40.72290166,-74.00320404,"(40.7229016643, -74.0032040388)"
1024542,ON-PREMISES LIQUOR,252,OP,New York City,1,NEW YORK,CAPTAIN MIKES SEAFOOD REST INC,MUDVILLE 9,126 CHAMBERS STREET,,NEW YORK,NY,10007,871536,,3/1/17,2/28/19,40.71524068,-74.00879475,"(40.7152406838, -74.0087947513)"
1025088,ON-PREMISES LIQUOR,252,OP,New York City,1,NEW YORK,GFB RESTAURANT CORP,IL MULINO,86 W 3RD STREET,,NEW YORK,NY,10012,872294,,3/2/17,2/28/19,40.72978958,-73.99894351,"(40.7297895837, -73.9989435089)"
1024286,ON-PREMISES LIQUOR,252,OP,New York City,1,NEW YORK,LONGFORD INC,BAR NONE,98 3RD AVE,,NEW YORK,NY,10003,872376,,3/3/17,2/28/19,40.73237172,-73.98791217,"(40.7323717181, -73.987912171)"
1298914,ON-PREMISES LIQUOR,252,OP,New York City,1,NEW YORK,SUSHI GAMA CORP,SUSHI GAMA,1403 2ND AVE,,NEW YORK,NY,10021,861532,3/6/17,3/6/17,2/28/19,40.76966,-73.95796,"(40.76966, -73.95796)"
1299855,ON-PREMISES LIQUOR,252,OP,New York City,1,NEW YORK,125 HOSPITALITY LLC,THE GROOVE,125 MACDOUGAL ST,,NEW YORK,NY,10012,861534,3/7/17,3/7/17,2/28/19,40.73056,-74.00015,"(40.73056, -74.00015)"
1297091,ON-PREMISES LIQUOR,252,OP,New York City,1,NEW YORK,GO BNB REST LLC,LILLY'S CRAFT KITCHEN,675B 9TH AVE,,NEW YORK,NY,10036,861536,3/8/17,3/8/17,2/28/19,40.76145,-73.99051,"(40.76145, -73.99051)"
1298415,ON-PREMISES LIQUOR,252,OP,New York City,1,NEW YORK,URBAN DAIRY LLC,CREAMLINE,75 9TH AVE,,NEW YORK,NY,10011,861545,3/9/17,3/9/17,2/28/19,40.74222,-74.00466,"(40.74222, -74.00466)"
1298262,ON-PREMISES LIQUOR,252,OP,New York City,1,NEW YORK,MFRF ENTERPRISES INC,STREET TACO,358 3RD AVE,,NEW YORK,NY,10016,861578,3/20/17,3/20/17,2/28/19,40.74089,-73.98187,"(40.74089, -73.98187)"
1293730,ON-PREMISES LIQUOR,252,OP,New York City,1,NEW YORK,COLEMAN PLAN A GROUP LLC,MONROE,49 MONROE ST,,NEW YORK,NY,10002,861581,3/8/17,3/21/17,2/28/19,40.71174,-73.99372,"(40.71174, -73.99372)"
1299948,ON-PREMISES LIQUOR,252,OP,New York City,1,NEW YORK,20 E 49TH RESTAURANT INC,BURGER HEAVEN,20 E 49TH ST,,NEW YORK,NY,10017,861595,3/21/17,3/21/17,2/28/19,40.75734,-73.97656,"(40.75734, -73.97656)"
1299135,ON-PREMISES LIQUOR,252,OP,New York City,1,NEW YORK,AMBER 135 VILLAGE INC,AMBER,135 CHRISTOPHER ST,,NEW YORK,NY,10014,861596,3/21/17,3/21/17,2/28/19,40.73306,-74.00697,"(40.73306, -74.00697)"
1293330,ON-PREMISES LIQUOR,252,OP,New York City,1,NEW YORK,SADA 510 MADISON LLC,EMPELLON 510,510 MADISON AVE,,NEW YORK,NY,10022,861599,3/22/17,3/22/17,2/28/19,40.75936,-73.97468,"(40.75936, -73.97468)"
1299177,ON-PREMISES LIQUOR,252,OP,New York City,1,NEW YORK,DYLIAM CORP,SIENA CAFE,1580 3RD AVE,,NEW YORK,NY,10128,861602,3/23/17,3/23/17,2/28/19,40.78066,-73.95286,"(40.78066, -73.95286)"
1298917,ON-PREMISES LIQUOR,252,OP,New York City,1,NEW YORK,210 EMPIRE LLC,EMPIRE DINER,210 10TH AVE,,NEW YORK,NY,10011,861610,3/27/17,3/27/17,2/28/19,40.74722,-74.00429,"(40.74722, -74.00429)"
1298830,ON-PREMISES LIQUOR,252,OP,New York City,1,NEW YORK,235 EAST 4TH INC,NOBODY IS PERFECT,235-237 E 4TH ST,,NEW YORK,NY,10009,861611,3/27/17,3/27/17,2/28/19,0,0,"(0.0, 0.0)"
1297724,ON-PREMISES LIQUOR,252,OP,New York City,1,NEW YORK,ADB BLEECKER LLC,THE ANTHONY,183 BLEECKER ST,,NEW YORK,NY,10012,861614,3/28/17,3/28/17,2/28/19,40.72911,-74.00086,"(40.72911, -74.00086)"
1298056,ON-PREMISES LIQUOR,252,OP,New York City,1,NEW YORK,7 WASHINGTON LANE CORP,ARIA HELL'S KITCHEN,369 W 51ST ST,,NEW YORK,NY,10019,861620,3/29/17,3/29/17,2/28/19,40.76413,-73.98826,"(40.76413, -73.98826)"
1297177,ON-PREMISES LIQUOR,252,OP,New York City,1,NEW YORK,SPOONFED NEW YORK COUNTRY GROUP LLC,SPOONFED NEW YORK COUNTRY,331 W 51ST ST,,NEW YORK,NY,10019,861616,3/29/17,3/29/17,2/28/19,40.76357,-73.98691,"(40.76357, -73.98691)"
1299624,ON-PREMISES LIQUOR,252,OP,New York City,1,NEW YORK,CIBO 888 LLC,AVENA,141 E 57TH ST,,NEW YORK,NY,10022,861625,3/30/17,3/30/17,2/28/19,40.76091,-73.96869,"(40.76091, -73.96869)"
1027505,ON-PREMISES LIQUOR,252,OP,New York City,1,NEW YORK,MASSAWA RESTAURANT CORP,MASSAWA RESTAURANT,1239 AMSTERDAM AVENUE,,NEW YORK,NY,10027,871833,,4/1/17,3/31/19,40.8099728,-73.95866167,"(40.8099728026, -73.9586616692)"
1027462,ON-PREMISES LIQUOR,252,OP,New York City,1,NEW YORK,PAULFRA RESTAURANT INC,,2751 BROADWAY,,NEW YORK,NY,10025,872496,,4/1/17,3/31/19,40.80101416,-73.96809104,"(40.8010141616, -73.9680910401)"
1027447,ON-PREMISES LIQUOR,252,OP,New York City,1,NEW YORK,HUSSIEN ENVIRONMENT INC,CLEOPATRAS NEEDLE,2483 2485 BROADWAY,,NEW YORK,NY,10025,872737,,4/1/17,3/31/19,40.7924011,-73.97364219,"(40.7924011007, -73.9736421856)"
1026799,ON-PREMISES LIQUOR,252,OP,New York City,1,NEW YORK,ZANIMAD FOOD CORP,THREE GUYS RESTAURANT,960 MADISON AVENUE,,NEW YORK,NY,10021,873392,,4/1/17,3/31/19,40.77399681,-73.96388707,"(40.7739968078, -73.9638870718)"
1027932,ON-PREMISES LIQUOR,252,OP,New York City,1,NEW YORK,SANDBAR CONCESSION INC,,205 W 46TH STREET,,NEW YORK,NY,10036,873187,,4/1/17,3/31/19,40.75872379,-73.98528424,"(40.7587237859, -73.9852842395)"
1025014,ON-PREMISES LIQUOR,252,OP,New York City,1,NEW YORK,35 WEST 20TH STREET REST INC,PERIYALI,35 W 20TH STREET,,NEW YORK,NY,10011,873066,,4/1/17,3/31/19,40.74018317,-73.99204782,"(40.7401831696, -73.9920478175)"
1024383,ON-PREMISES LIQUOR,252,OP,New York City,1,NEW YORK,"SCRATCHER CAFE INC,THE",,209 EAST 5TH ST,,NEW YORK,NY,10003,872786,,4/1/17,3/31/19,40.72769585,-73.99102569,"(40.727695849, -73.9910256896)"
1025145,ON-PREMISES LIQUOR,252,OP,New York City,1,NEW YORK,RDK RESTAURANT CORP,BISTRO LES AMIS,180 SPRING STREET,,NEW YORK,NY,10012,872592,,4/1/17,3/31/19,40.72480952,-74.0026273,"(40.7248095242, -74.0026273021)"
1025297,ON-PREMISES LIQUOR,252,OP,New York City,1,NEW YORK,HOME BOY RESTAURANT INC,TRIBECA GRILL,375 GREENWICH STREET,,NEW YORK,NY,10013,873052,,4/1/17,3/31/19,40.71943601,-74.01016267,"(40.7194360051, -74.0101626737)"
1299960,ON-PREMISES LIQUOR,252,OP,New York City,1,NEW YORK,SAINT NEOT LLC,GLORIA,401 W 53RD ST,,NEW YORK,NY,10019,861632,4/3/17,4/3/17,3/31/19,40.76558,-73.98783,"(40.76558, -73.98783)"
1300031,ON-PREMISES LIQUOR,252,OP,New York City,1,NEW YORK,TRENTA LLC,VIA TRENTA PIZZOTECA,536 W 30TH ST,,NEW YORK,NY,10001,861635,4/3/17,4/3/17,3/31/19,40.75246,-74.00208,"(40.75246, -74.00208)"
1299450,ON-PREMISES LIQUOR,252,OP,New York City,1,NEW YORK,BANTER HOSPITALITY GROUP LLC,BANTER,169 SULLIVAN ST,,NEW YORK,NY,10012,861631,4/3/17,4/3/17,3/31/19,40.72787,-74.0011,"(40.72787, -74.0011)"
1298006,ON-PREMISES LIQUOR,252,OP,New York City,1,NEW YORK,HOURGLASS HOLDINGS INC,BOKA,9 ST MARKS PL,EAST SIDE,NEW YORK,NY,10003,861648,4/10/17,4/10/17,3/31/19,40.72937,-73.98921,"(40.72937, -73.98921)"
1300696,ON-PREMISES LIQUOR,252,OP,New York City,1,NEW YORK,HELLS KITCHEN THAI INC,ESANATION,750 9TH AVE,,NEW YORK,NY,10019,861653,4/11/17,4/11/17,3/31/19,40.76376,-73.98852,"(40.76376, -73.98852)"
1299526,ON-PREMISES LIQUOR,252,OP,New York City,1,NEW YORK,KAIER INC,LOOP,173 3RD AVE,,NEW YORK,NY,10003,861650,4/11/17,4/11/17,3/31/19,40.73478,-73.98599,"(40.73478, -73.98599)"
1289838,ON-PREMISES LIQUOR,252,OP,New York City,1,NEW YORK,TOKYO RESTAURANTS FACTORY INTERNATIONAL NY INC,MIFUNE,245 E 44TH ST,,NEW YORK,NY,10017,861673,4/13/17,4/13/17,3/31/19,40.75155,-73.97181,"(40.75155, -73.97181)"
1300684,ON-PREMISES LIQUOR,252,OP,New York City,1,NEW YORK,CASUAL HOSPITALITY LLC,OUT EAST,509 E 6TH ST,,NEW YORK,NY,10009,861660,4/13/17,4/13/17,3/31/19,40.72528,-73.98326,"(40.72528, -73.98326)"
1300345,ON-PREMISES LIQUOR,252,OP,New York City,1,NEW YORK,EST RESTAURANT CORP,SISTER JANE,349 E 13TH ST,,NEW YORK,NY,10003,861676,4/14/17,4/14/17,3/31/19,40.7309,-73.98339,"(40.7309, -73.98339)"
1299219,ON-PREMISES LIQUOR,252,OP,New York City,1,NEW YORK,PIZZAIUOLI NAPOLETANI 1 LLC,KESTE' WALL STREET,77 FULTON ST,SPACE A,NEW YORK,NY,10038,861677,4/14/17,4/14/17,3/31/19,40.70899,-74.00465,"(40.70899, -74.00465)"
1299007,ON-PREMISES LIQUOR,252,OP,New York City,1,NEW YORK,SUPER NORIEGA LLC,BABY BRASA,173 7TH AVENUE SOUTH,,NEW YORK,NY,10014,861690,4/18/17,4/18/17,3/31/19,40.7358,-74.00147,"(40.7358, -74.00147)"
1299768,ON-PREMISES LIQUOR,252,OP,New York City,1,NEW YORK,NOBU 195 LLC,NOBU DOWNTOWN,195 BROADWAY,,NEW YORK,NY,10007,861700,3/29/17,4/21/17,2/28/19,40.71071,-74.00941,"(40.71071, -74.00941)"
1298552,ON-PREMISES LIQUOR,252,OP,New York City,1,NEW YORK,UESMEX LLC,CONMIGO,1685 1ST AVE,,NEW YORK,NY,10128,861704,4/24/17,4/24/17,3/31/19,40.77787,-73.94887,"(40.77787, -73.94887)"
1299684,ON-PREMISES LIQUOR,252,OP,New York City,1,NEW YORK,BKUK 10 CORP,CARA MIA,623 9TH AVE,,NEW YORK,NY,10036,861707,4/24/17,4/24/17,3/31/19,40.7599,-73.99178,"(40.7599, -73.99178)"
1298195,ON-PREMISES LIQUOR,252,OP,New York City,1,NEW YORK,IS CHRYSTIE STREET MGMT LLC & VS CHRYSTIE LLC,PUBLIC KITCHEN & LOUIS,215 CHRYSTIE ST,,NEW YORK,NY,10002,861708,4/24/17,4/24/17,3/31/19,40.72251,-73.99162,"(40.72251, -73.99162)"
1298967,ON-PREMISES LIQUOR,252,OP,New York City,1,NEW YORK,SACHI ASIAN THAI INC,SACHI ASIAN THAI,713 2ND AVE,STORE 6&7,NEW YORK,NY,10016,861718,4/26/17,4/26/17,3/31/19,40.7476,-73.97389,"(40.7476, -73.97389)"
1287552,ON-PREMISES LIQUOR,252,OP,New York City,1,NEW YORK,KTG HOSPITALITY LLC,WALL STREET GRILL,75 WALL ST,UNIT IV,NEW YORK,NY,10005,861726,4/26/17,4/26/17,3/31/19,40.70559,-74.00808,"(40.70559, -74.00808)"
1300049,ON-PREMISES LIQUOR,252,OP,New York City,1,NEW YORK,MDB 38 LLC,MAD DOG & BEANS MEXICAN CANTINA,6 E 39TH ST,A/K/A 5 E 38TH ST  SUITE 103,NEW YORK,NY,10016,861744,4/28/17,4/28/17,3/31/19,40.75075,-73.98197,"(40.75075, -73.98197)"
1300519,ON-PREMISES LIQUOR,252,OP,New York City,1,NEW YORK,45 TUDOR RESTAURANT LLC,TUDOR CITY STEAKHOUSE,45 TUDOR CITY PL,GROUND FLOOR AND BASEMENT,NEW YORK,NY,10017,861750,4/28/17,4/28/17,3/31/19,40.74917,-73.97023,"(40.74917, -73.97023)"
1300578,ON-PREMISES LIQUOR,252,OP,New York City,1,NEW YORK,HOLE IN THE WALL CLIFF ST LLC,HOLE IN THE WALL,15 CLIFF ST,,NEW YORK,NY,10038,861749,4/28/17,4/28/17,3/31/19,40.70831,-74.00567,"(40.70831, -74.00567)"
1026881,ON-PREMISES LIQUOR,252,OP,New York City,1,NEW YORK,BRUNO & SONS INC,BRUNO'S CLUB A STEAKHOUSE,240 E 58TH STREET,,NEW YORK,NY,10022,863212,3/30/18,5/1/17,4/30/19,40.76047445,-73.96611655,"(40.7604744523, -73.9661165452)"
1027709,ON-PREMISES LIQUOR,252,OP,New York City,1,NEW YORK,1218 M & M BAR & GRILL INC,,1218 ST NICHOLAS AVENUE,,NEW YORK,NY,10032,874492,,5/1/17,4/30/19,40.84285995,-73.93834949,"(40.8428599452, -73.9383494855)"
1111088,ON-PREMISES LIQUOR,252,OP,New York City,1,NEW YORK,683 NINTH AVENUE INC,BARRAGE,683 NINTH AVE AKA 401 W 47TH,,NEW YORK,NY,10036,874096,,5/1/17,4/30/19,40.76165517,-73.99036394,"(40.7616551749, -73.9903639407)"
1024113,ON-PREMISES LIQUOR,252,OP,New York City,1,NEW YORK,COCKTAIL BLUE LLC,THE BOWERY BALLROOM,6 8 DELANCEY STREET,,NEW YORK,NY,10002,873515,,5/1/17,4/30/19,40.7370191,-74.00531463,"(40.7370190995, -74.0053146328)"
1024639,ON-PREMISES LIQUOR,252,OP,New York City,1,NEW YORK,MONOLITH INC,RAVEN,194 AVE A,,NEW YORK,NY,10009,874152,,5/1/17,4/30/19,40.72914182,-73.98119068,"(40.7291418193, -73.9811906782)"
1025068,ON-PREMISES LIQUOR,252,OP,New York City,1,NEW YORK,DAV TSI DAV INC,TERRA BLUES,149 BLEECKER STREET 2FL,2ND FLR,NEW YORK,NY,10012,873957,,5/1/17,4/30/19,40.72834116,-73.99938153,"(40.7283411569, -73.9993815329)"
1114905,ON-PREMISES LIQUOR,252,OP,New York City,1,NEW YORK,LUPES EAST L A KITCHEN INC,,110 SIXTH AVENUE,WATTS & BROOME,NEW YORK,NY,10013,873918,,5/1/17,4/30/19,40.72344964,-74.00479533,"(40.7234496402, -74.0047953302)"
1299603,ON-PREMISES LIQUOR,252,OP,New York City,1,NEW YORK,ESQUINA NYC 1402SECOND LLC,"LA ESQUINA, LA ESQUINA TAQUERIA, ANDTHE CORNER",1402 2ND AVE,,NEW YORK,NY,10021,861759,5/2/17,5/2/17,4/30/19,40.76953,-73.95773,"(40.76953, -73.95773)"
1298926,ON-PREMISES LIQUOR,252,OP,New York City,1,NEW YORK,MEXICUE 160 8TH AVENUE LLC,,160 8TH AVE,,NEW YORK,NY,10011,861757,5/2/17,5/2/17,4/30/19,40.74207,-74.00061,"(40.74207, -74.00061)"
1299911,ON-PREMISES LIQUOR,252,OP,New York City,1,NEW YORK,NISHIWAKI LLC,UCHU,217 ELDRIDGE ST,,NEW YORK,NY,10002,861754,5/2/17,5/2/17,4/30/19,40.72172,-73.99026,"(40.72172, -73.99026)"
1299899,ON-PREMISES LIQUOR,252,OP,New York City,1,NEW YORK,LEGENDS HOSPITALITY LLC,,PIER 86 W 46TH ST & 12TH AVE,,NEW YORK,NY,10036,861755,5/2/17,5/2/17,4/30/19,0,0,"(0.0, 0.0)"
1295901,ON-PREMISES LIQUOR,252,OP,New York City,1,NEW YORK,GG CAMPBELL LLC,THE CAMPBELL,15 VANDERBILT AVE,GRAND CENTRAL TERMINAL # R-05,NEW YORK,NY,10017,861766,5/3/17,5/3/17,4/30/19,40.753,-73.97762,"(40.753, -73.97762)"
1289747,ON-PREMISES LIQUOR,252,OP,New York City,1,NEW YORK,ROMCARGIO LLC,TARTINA,1034 AMSTERDAM AVE,,NEW YORK,NY,10025,870842,5/5/17,5/5/17,4/30/19,40.80355,-73.96351,"(40.80355, -73.96351)"
1301073,ON-PREMISES LIQUOR,252,OP,New York City,1,NEW YORK,"BAY SEAFOOD CUISINE EAST 49TH LLC, THE",JASMINE,216 E 49TH ST,GROUND FLOOR,NEW YORK,NY,10017,861775,5/5/17,5/5/17,4/30/19,40.75477,-73.97049,"(40.75477, -73.97049)"
1297787,ON-PREMISES LIQUOR,252,OP,New York City,1,NEW YORK,MONTAFON LLC,MONT BLANC 52,344 346 W 52ND ST,,NEW YORK,NY,10019,861781,5/8/17,5/8/17,4/30/19,0,0,"(0.0, 0.0)"
1297798,ON-PREMISES LIQUOR,252,OP,New York City,1,NEW YORK,WESTVILLE WALL STREET INC,WESTVILLE WALL STREET,110 WALL ST,,NEW YORK,NY,10005,861782,5/9/17,5/9/17,4/30/19,40.70477,-74.00652,"(40.70477, -74.00652)"
1301076,ON-PREMISES LIQUOR,252,OP,New York City,1,NEW YORK,YUDYT RESTAURANT INC,LULO RESTAURANT,1626 SAINT NICHOLAS AVE,,NEW YORK,NY,10040,861790,5/10/17,5/10/17,4/30/19,40.85565,-73.92888,"(40.85565, -73.92888)"
1298997,ON-PREMISES LIQUOR,252,OP,New York City,1,NEW YORK,TJW FAMILY FOODS LLC,JOJO'S PHILOSOPHY,169 BLEECKER ST,,NEW YORK,NY,10012,861791,5/10/17,5/10/17,4/30/19,40.72882,-74.00025,"(40.72882, -74.00025)"
1300111,ON-PREMISES LIQUOR,252,OP,New York City,1,NEW YORK,NOBLE GRAINS NYC LLC,WORKSHOP,1415 2ND AVE,,NEW YORK,NY,10021,861797,5/11/17,5/11/17,4/30/19,40.77003,-73.95769,"(40.77003, -73.95769)"
1299189,ON-PREMISES LIQUOR,252,OP,New York City,1,NEW YORK,ACS COLUMBUS LLC,LOKAL,473 COLUMBUS AVE,,NEW YORK,NY,10024,861806,2/1/17,5/12/17,1/31/19,40.7843,-73.97355,"(40.7843, -73.97355)"
1300371,ON-PREMISES LIQUOR,252,OP,New York City,1,NEW YORK,AROKA HOSPITALITY LLC,AROQA,206 9TH AVE,,NEW YORK,NY,10011,861817,5/16/17,5/16/17,4/30/19,40.74609,-74.00138,"(40.74609, -74.00138)"
1297617,ON-PREMISES LIQUOR,252,OP,New York City,1,NEW YORK,FUN HAT LLC,BEETLE HOUSE,308 E 6TH ST,STORE 2,NEW YORK,NY,10003,861820,5/16/17,5/16/17,4/30/19,40.72708,-73.98801,"(40.72708, -73.98801)"
1299602,ON-PREMISES LIQUOR,252,OP,New York City,1,NEW YORK,2254 ON 5TH AVE CORP,,2254 5TH AVE,GROUND FL,NEW YORK,NY,10037,887843,5/19/17,5/19/17,4/30/19,40.81438,-73.93668,"(40.81438, -73.93668)"
1297482,ON-PREMISES LIQUOR,252,OP,New York City,1,NEW YORK,11 W 32 INC,MARU,11 W 32ND ST- 3RD FLR,3RD FLR,NEW YORK,NY,10001,861849,5/19/17,5/19/17,4/30/19,40.7476,-73.98631,"(40.7476, -73.98631)"
1300186,ON-PREMISES LIQUOR,252,OP,New York City,1,NEW YORK,REBEL ALLEN LLC,MS. YOO,163 ALLEN ST,,NEW YORK,NY,10002,861845,5/19/17,5/19/17,4/30/19,40.72117,-73.98966,"(40.72117, -73.98966)"
1299503,ON-PREMISES LIQUOR,252,OP,New York City,1,NEW YORK,PJ RESTAURANT INC,JOHN'S OF 12TH STREET,302 E 12TH ST,,NEW YORK,NY,10003,861866,5/23/17,5/23/17,4/30/19,40.73072,-73.98546,"(40.73072, -73.98546)"
1301473,ON-PREMISES LIQUOR,252,OP,New York City,1,NEW YORK,LENOX 127 ST RESTAURANT CORP,CANTINA TAQUERIA & TEQUILA BAR,329 LENOX AVE,STORE FRONT LEFT,NEW YORK,NY,10027,861868,5/24/17,5/24/17,4/30/19,40.80891,-73.94498,"(40.80891, -73.94498)"
1299436,ON-PREMISES LIQUOR,252,OP,New York City,1,NEW YORK,MTGEBHARD LLC,GEBHARD'S BEER CULTURE,228 W 72ND ST,,NEW YORK,NY,10023,861867,5/24/17,5/24/17,4/30/19,40.77905,-73.98311,"(40.77905, -73.98311)"
1301439,ON-PREMISES LIQUOR,252,OP,New York City,1,NEW YORK,LADAMANYC INC,LENITA,7 HANOVER SQ,,NEW YORK,NY,10004,861872,5/25/17,5/25/17,4/30/19,40.70427,-74.00933,"(40.70427, -74.00933)"
1300395,ON-PREMISES LIQUOR,252,OP,New York City,1,NEW YORK,DEL FRISCO'S GRILL OF NEW YORK LLC,DEL FRISCO'S GRILLE,200 VESEY ST,STORES 108 & 209,NEW YORK,NY,10281,861882,5/30/17,5/30/17,4/30/19,40.71392,-74.01468,"(40.71392, -74.01468)"
1027285,ON-PREMISES LIQUOR,252,OP,New York City,1,NEW YORK,BROADWAY DESSERTS LTD,FRENCH ROAST,2342 2350 BROADWAY,,NEW YORK,NY,10024,875446,,6/1/17,5/31/19,40.78795277,-73.97658236,"(40.7879527677, -73.9765823619)"
1027573,ON-PREMISES LIQUOR,252,OP,New York City,1,NEW YORK,J H PAPPAS ENTERPRISES INC,GIOVANNI #25,25 E 83RD ST,,NEW YORK,NY,10028,874993,,6/1/17,5/31/19,40.77909384,-73.9607169,"(40.7790938437, -73.960716897)"
1023984,ON-PREMISES LIQUOR,252,OP,New York City,1,NEW YORK,GARRYMORE RESTAURANT INC,NILES,371 7TH AVENUE,,NEW YORK,NY,10001,874750,,6/1/17,5/31/19,40.74879376,-73.99214205,"(40.7487937646, -73.9921420491)"
1024362,ON-PREMISES LIQUOR,252,OP,New York City,1,NEW YORK,SOUTH CHINA SEA REST CO INC,INDOCHINE,430 LAFAYETTE STREET,,NEW YORK,NY,10003,875452,,6/1/17,5/31/19,40.7294143,-73.9919059,"(40.7294142992, -73.9919058988)"
1025307,ON-PREMISES LIQUOR,252,OP,New York City,1,NEW YORK,JING FONG RESTAURANT INC,JING FONG,14 20 ELIZABETH STREET,,NEW YORK,NY,10013,874777,,6/1/17,5/31/19,40.71579219,-73.9973464,"(40.7157921879, -73.9973464024)"
1025204,ON-PREMISES LIQUOR,252,OP,New York City,1,NEW YORK,15 ACRES INC,KETTLE OF FISH,57 59 CHRISTOPHER ST,,NEW YORK,NY,10014,874368,,6/1/17,5/31/19,0,0,"(0.0, 0.0)"
1301405,ON-PREMISES LIQUOR,252,OP,New York City,1,NEW YORK,1626 SRJ LLC,JUNIOR'S RESTAURANT,750 7TH AVE,,NEW YORK,NY,10019,861911,6/6/17,6/6/17,5/31/19,40.76077,-73.98373,"(40.76077, -73.98373)"
1300343,ON-PREMISES LIQUOR,252,OP,New York City,1,NEW YORK,PURE BEEF INC,UN PLAZA GRILL,845 UNITED NATIONS PLAZA,"E. 47TH & 48TH ST, 845 1ST AVE",NEW YORK,NY,10017,861912,6/6/17,6/6/17,5/31/19,40.7525,-73.96758,"(40.7525, -73.96758)"
1027184,ON-PREMISES LIQUOR,252,OP,New York City,1,NEW YORK,J C B REST INC,MALACHYS,103 W 72ND STREET,,NEW YORK,NY,10023,875586,,6/6/17,5/31/19,40.7775185,-73.97889074,"(40.7775184988, -73.9788907408)"
1300807,ON-PREMISES LIQUOR,252,OP,New York City,1,NEW YORK,EMPEROR EMPIRE LLC,LITTLE ALLEY,550 3RD AVE,,NEW YORK,NY,10016,861918,6/7/17,6/7/17,5/31/19,40.74738,-73.97714,"(40.74738, -73.97714)"
1301955,ON-PREMISES LIQUOR,252,OP,New York City,1,NEW YORK,"OTHEROOM INC,THE",THE OTHEROOM,143 PERRY ST,,NEW YORK,NY,10014,861919,6/8/17,6/8/17,5/31/19,40.73494,-74.00803,"(40.73494, -74.00803)"
1295898,ON-PREMISES LIQUOR,252,OP,New York City,1,NEW YORK,SAPOARA LLC,,2262 1ST AVE,,NEW YORK,NY,10035,861926,6/9/17,6/9/17,5/31/19,40.79619,-73.93505,"(40.79619, -73.93505)"
1302014,ON-PREMISES LIQUOR,252,OP,New York City,1,NEW YORK,SURYA HELLS KITCHEN INC,BADSHAH MODERN INDIAN RESTAURANT,788 9TH AVE,,NEW YORK,NY,10019,861936,6/12/17,6/12/17,5/31/19,40.76489,-73.9877,"(40.76489, -73.9877)"
1295051,ON-PREMISES LIQUOR,252,OP,New York City,1,NEW YORK,MOS EISLEY LLC,LOVERBOY,127 AVENUE C,AKA 343 EAST 8TH STREET,NEW YORK,NY,10009,861938,6/12/17,6/12/17,5/31/19,40.72485,-73.97849,"(40.72485, -73.97849)"
1287024,ON-PREMISES LIQUOR,252,OP,New York City,1,NEW YORK,160 DYCKMAN REST CORP,REPUBLICA,160 DYCKMAN ST,,NEW YORK,NY,10040,887556,6/13/17,6/13/17,5/31/19,40.86363,-73.92665,"(40.86363, -73.92665)"
1297959,ON-PREMISES LIQUOR,252,OP,New York City,1,NEW YORK,KUBBEH LLC,KUBEH,464 AVENUE OF THE AMERICAS,,NEW YORK,NY,10011,861953,6/14/17,6/14/17,5/31/19,40.73545,-73.99813,"(40.73545, -73.99813)"
1300185,ON-PREMISES LIQUOR,252,OP,New York City,1,NEW YORK,CHICANO GOTHAM LLC,CHOLO NOIR,503 E 6TH ST,,NEW YORK,NY,10009,861971,6/19/17,6/19/17,5/31/19,40.72538,-73.9835,"(40.72538, -73.9835)"
1302118,ON-PREMISES LIQUOR,252,OP,New York City,1,NEW YORK,NEW PARS NEW YORK INC,PARS GRILL HOUSE & BAR,249 W 26TH ST,,NEW YORK,NY,10001,861972,6/20/17,6/20/17,5/31/19,40.74701,-73.9964,"(40.74701, -73.9964)"
1300727,ON-PREMISES LIQUOR,252,OP,New York City,1,NEW YORK,ICELANDIC FISH & CHIPS US LLC,,28 7TH AVE S,,NEW YORK,NY,10014,861974,6/20/17,6/20/17,5/31/19,40.73044,-74.00484,"(40.73044, -74.00484)"
1300770,ON-PREMISES LIQUOR,252,OP,New York City,1,NEW YORK,PGNV LLC,EMPANADA MAMA,765 9TH AVE,,NEW YORK,NY,10019,861984,6/21/17,6/21/17,5/31/19,40.76441,-73.9885,"(40.76441, -73.9885)"
1297727,ON-PREMISES LIQUOR,252,OP,New York City,1,NEW YORK,132 7TH AVE REST LLC,MOTEL MORRIS,132 7TH AVE,,NEW YORK,NY,10011,862017,3/15/17,6/30/17,2/28/19,40.74106,-73.99793,"(40.74106, -73.99793)"
1301312,ON-PREMISES LIQUOR,252,OP,New York City,1,NEW YORK,SIMON INDIAN PALACE INC,,230 E 58TH ST,UNITS 4 & 5,NEW YORK,NY,10022,862015,6/30/17,6/30/17,5/31/19,40.76028,-73.96582,"(40.76028, -73.96582)"
1300453,ON-PREMISES LIQUOR,252,OP,New York City,1,NEW YORK,MAIDEN FARM INC,ZEYTUNA,59 MAIDEN LN,,NEW YORK,NY,10038,862014,6/30/17,6/30/17,5/31/19,40.70875,-74.0083,"(40.70875, -74.0083)"
1296768,ON-PREMISES LIQUOR,252,OP,New York City,1,NEW YORK,SISTINA RESTAURANT INC,,24 E 81ST ST,,NEW YORK,NY,10028,875505,9/13/16,7/1/17,6/30/19,40.7777,-73.96161,"(40.7777, -73.96161)"
1026336,ON-PREMISES LIQUOR,252,OP,New York City,1,NEW YORK,PALM WEST CORPORATION,THE PALM WEST,250 WEST 50TH STREET,,NEW YORK,NY,10019,875884,,7/1/17,6/30/19,40.7618207,-73.98512304,"(40.7618207031, -73.9851230417)"
1024697,ON-PREMISES LIQUOR,252,OP,New York City,1,NEW YORK,224 AVENUE B INC,,224 AVENUE B,,NEW YORK,NY,10009,875969,,7/1/17,6/30/19,40.72885452,-73.97853216,"(40.7288545162, -73.9785321648)"
1025042,ON-PREMISES LIQUOR,252,OP,New York City,1,NEW YORK,BLL RESTAURANT CORP,PORTO BELLO RESTAURANT,208 THOMPSON STREET,,NEW YORK,NY,10012,876283,,7/1/17,6/30/19,40.72868997,-73.99935226,"(40.7286899667, -73.9993522579)"
1024691,ON-PREMISES LIQUOR,252,OP,New York City,1,NEW YORK,177 CHRYSTIE INC,ESPERANTO,145 AVENUE C,,NEW YORK,NY,10009,875762,,7/1/17,6/30/19,40.72532775,-73.97801665,"(40.725327754, -73.9780166499)"
1302259,ON-PREMISES LIQUOR,252,OP,New York City,1,NEW YORK,GOGI 37 INC,GOGI 37,252 W 37TH ST,STE 101,NEW YORK,NY,10018,862029,7/6/17,7/6/17,6/30/19,40.75368,-73.99136,"(40.75368, -73.99136)"
1293277,ON-PREMISES LIQUOR,252,OP,New York City,1,NEW YORK,BLUE MOUNTAIN HEIGHTS LLC,,499 W 158TH ST,"STORE 1,2",NEW YORK,NY,10032,862032,7/7/17,7/7/17,6/30/19,40.83343,-73.9412,"(40.83343, -73.9412)"
1303338,ON-PREMISES LIQUOR,252,OP,New York City,1,NEW YORK,SUPERSPACE 2 LLC,SEAPORT FOOD LAB/ MR. CANNON'S,203 FRONT ST,SPACE #1595,NEW YORK,NY,10038,862041,7/7/17,7/7/17,6/30/19,40.70701,-74.00331,"(40.70701, -74.00331)"
1302111,ON-PREMISES LIQUOR,252,OP,New York City,1,NEW YORK,JUNZI COLUMBIA LLC,JUNZI KITCHEN,2896 BROADWAY,,NEW YORK,NY,10025,877097,7/10/17,7/10/17,6/30/19,40.80593,-73.9652,"(40.80593, -73.9652)"
1294798,ON-PREMISES LIQUOR,252,OP,New York City,1,NEW YORK,BURGER & LOBSTER BRYANT PARK LLC,BURGER & LOBSTER,132 W 43RD ST,,NEW YORK,NY,10036,862047,7/11/17,7/11/17,6/30/19,40.75613,-73.9852,"(40.75613, -73.9852)"
1296727,ON-PREMISES LIQUOR,252,OP,New York City,1,NEW YORK,28 WEST 44TH RESTAURANT LLC,SEN SAKANA,28 W 44TH ST,,NEW YORK,NY,10036,862053,7/11/17,7/11/17,6/30/19,40.75533,-73.9815,"(40.75533, -73.9815)"
1296686,ON-PREMISES LIQUOR,252,OP,New York City,1,NEW YORK,CAMELOT CASTLE LLC,OSCAR WILDE,45 W 27TH ST,,NEW YORK,NY,10001,862051,7/11/17,7/11/17,6/30/19,40.74514,-73.99004,"(40.74514, -73.99004)"
1302763,ON-PREMISES LIQUOR,252,OP,New York City,1,NEW YORK,PYRAMID WTC TENANT LLC &PYRAMID WTC MANAGEMENT LLC,TABLE 133,133 GREENWICH ST,6TH FL,NEW YORK,NY,10006,862048,7/11/17,7/11/17,6/30/19,40.70934,-74.01292,"(40.70934, -74.01292)"
1301392,ON-PREMISES LIQUOR,252,OP,New York City,1,NEW YORK,S&G FOOD GROUP LLC,CESCA,166 W 75TH ST,,NEW YORK,NY,10023,862062,7/12/17,7/12/17,6/30/19,40.78031,-73.97987,"(40.78031, -73.97987)"
1301635,ON-PREMISES LIQUOR,252,OP,New York City,1,NEW YORK,NEW AMBER 103 INC,AMBER,103 W 70TH ST,,NEW YORK,NY,10023,862059,7/12/17,7/12/17,6/30/19,40.77629,-73.97993,"(40.77629, -73.97993)"
1302052,ON-PREMISES LIQUOR,252,OP,New York City,1,NEW YORK,IROM LLC,ONE LENOX,1113 1ST AVE,,NEW YORK,NY,10065,862060,7/12/17,7/12/17,6/30/19,40.76103,-73.96116,"(40.76103, -73.96116)"
1300393,ON-PREMISES LIQUOR,252,OP,New York City,1,NEW YORK,VINTAGE 33 INC,TURNTABLE CHICKEN JAZZ,20 W 33RD ST,,NEW YORK,NY,10001,862056,7/12/17,7/12/17,6/30/19,40.74828,-73.98649,"(40.74828, -73.98649)"
1301916,ON-PREMISES LIQUOR,252,OP,New York City,1,NEW YORK,NOI DUE CARNE INC,,139 141 W 69TH ST,,NEW YORK,NY,10023,862069,7/13/17,7/13/17,6/30/19,40.77615,-73.98153,"(40.77615, -73.98153)"
1303202,ON-PREMISES LIQUOR,252,OP,New York City,1,NEW YORK,NYC HARLEM GROUP LLC,TIOS BISTRO,421 LENOX AVE,,NEW YORK,NY,10027,862086,7/18/17,7/18/17,6/30/19,40.81177,-73.94289,"(40.81177, -73.94289)"
1294524,ON-PREMISES LIQUOR,252,OP,New York City,1,NEW YORK,17 STONE STREET LLC,SOHO PARK,832 8TH AVE,,NEW YORK,NY,10019,862083,7/18/17,7/18/17,6/30/19,40.76238,-73.98582,"(40.76238, -73.98582)"
1302614,ON-PREMISES LIQUOR,252,OP,New York City,1,NEW YORK,ZONI CAFE LLC,,41 W 33RD ST,,NEW YORK,NY,10001,862087,7/19/17,7/19/17,6/30/19,40.74873,-73.98705,"(40.74873, -73.98705)"
1300394,ON-PREMISES LIQUOR,252,OP,New York City,1,NEW YORK,SERAFINA TRIBECA RESTAURANT LLC,,113 READE ST,,NEW YORK,NY,10013,862091,7/19/17,7/19/17,6/30/19,40.71585,-74.00872,"(40.71585, -74.00872)"
1303284,ON-PREMISES LIQUOR,252,OP,New York City,1,NEW YORK,SC BROADWAY LLC,SHAKING CRAB,2869 BROADWAY,,NEW YORK,NY,10025,877147,7/21/17,7/21/17,6/30/19,40.80521,-73.96627,"(40.80521, -73.96627)"
1303057,ON-PREMISES LIQUOR,252,OP,New York City,1,NEW YORK,SA THIRD AVE CAFE LLC _ 165 E 66 RETAIL LLC,SANT AMBROEUS COFFEE BAR,1136 3RD AVE,,NEW YORK,NY,10065,877153,7/21/17,7/21/17,6/30/19,40.76615,-73.9633,"(40.76615, -73.9633)"
1302552,ON-PREMISES LIQUOR,252,OP,New York City,1,NEW YORK,PASTAIAT INC,PASTAI,186 9TH AVE,,NEW YORK,NY,10011,862102,7/21/17,7/21/17,6/30/19,40.74542,-74.0019,"(40.74542, -74.0019)"
1301734,ON-PREMISES LIQUOR,252,OP,New York City,1,NEW YORK,EAST SIDE BURGERS 1 LLC,WAHLBURGERS,1633 2ND AVE,,NEW YORK,NY,10028,862112,7/24/17,7/24/17,6/30/19,40.77716,-73.95248,"(40.77716, -73.95248)"
1301885,ON-PREMISES LIQUOR,252,OP,New York City,1,NEW YORK,IMPERIAL CLUB LLC,THE EXECUTIVE CLUB,603 W 45TH ST,,NEW YORK,NY,10036,862115,7/25/17,7/25/17,6/30/19,40.76302,-73.9973,"(40.76302, -73.9973)"
1303451,ON-PREMISES LIQUOR,252,OP,New York City,1,NEW YORK,CORNELL UNIV & GALAXY REST'S CATERING GROUP LP,,2 W LOOP RD,,NEW YORK,NY,10044,862136,7/26/17,7/26/17,6/30/19,40.5895,-74.10323,"(40.5895, -74.10323)"
1302411,ON-PREMISES LIQUOR,252,OP,New York City,1,NEW YORK,MA UWS NEW YORK INC,IZAKAYA IDA,141 W 72ND ST,,NEW YORK,NY,10023,862149,7/27/17,7/27/17,6/30/19,40.77818,-73.98018,"(40.77818, -73.98018)"
1302923,ON-PREMISES LIQUOR,252,OP,New York City,1,NEW YORK,LAND FORTUNE INC,LAND OF PLENTY,204 E 58TH ST,,NEW YORK,NY,10022,862147,7/27/17,7/27/17,6/30/19,40.76062,-73.96664,"(40.76062, -73.96664)"
1303280,ON-PREMISES LIQUOR,252,OP,New York City,1,NEW YORK,S&J MEATPACKING LLC,THE WILD SON,53 LITTLE W 12TH ST,STORE #1,NEW YORK,NY,10014,862153,7/27/17,7/27/17,6/30/19,40.74062,-74.00845,"(40.74062, -74.00845)"
1302260,ON-PREMISES LIQUOR,252,OP,New York City,1,NEW YORK,MCD HOSPITALITY LLC,LE BARATIN,26 GREENWICH AVE,,NEW YORK,NY,10011,862152,7/27/17,7/27/17,6/30/19,40.73498,-73.99998,"(40.73498, -73.99998)"
1302568,ON-PREMISES LIQUOR,252,OP,New York City,1,NEW YORK,NINGBO CAFE INC,NINGBO CAFE,21 S END AVE,STORE 3,NEW YORK,NY,10280,862146,7/27/17,7/27/17,6/30/19,40.70819,-74.01779,"(40.70819, -74.01779)"
1293719,ON-PREMISES LIQUOR,252,OP,New York City,1,NEW YORK,VARIETY 57TH STREET HOLDINGS LLC,THE RING - CELLAR,311 W 57TH ST,,NEW YORK,NY,10019,862166,2/1/17,7/31/17,1/31/19,40.76714,-73.98347,"(40.76714, -73.98347)"
1303310,ON-PREMISES LIQUOR,252,OP,New York City,1,NEW YORK,TJ ALVAREZ CORP,IL CARINO RESTAURANT,1710 2ND AVE,STORE #2,NEW YORK,NY,10128,862162,7/31/17,7/31/17,6/30/19,40.77951,-73.95033,"(40.77951, -73.95033)"
1025849,ON-PREMISES LIQUOR,252,OP,New York City,1,NEW YORK,MENDYS RESTAURANT INC,BEDFORD ON PARK,10 PARK AVENUE,,NEW YORK,NY,10016,876859,5/19/17,8/1/17,7/31/19,40.74717131,-73.98147799,"(40.7471713054, -73.981477987)"
1303635,ON-PREMISES LIQUOR,252,OP,New York City,1,NEW YORK,MHH 1590 LLC,DULCE VIDA / DULCE VIDA LATIN BISTRO,1219 LEXINGTON AVE,,NEW YORK,NY,10028,862169,8/1/17,8/1/17,7/31/19,40.77704,-73.95721,"(40.77704, -73.95721)"
1302735,ON-PREMISES LIQUOR,252,OP,New York City,1,NEW YORK,MAXVER LLC,CALLE DAO CHELSEA,461 W 23RD ST,,NEW YORK,NY,10011,862168,8/1/17,8/1/17,7/31/19,40.74726,-74.00301,"(40.74726, -74.00301)"
1301591,ON-PREMISES LIQUOR,252,OP,New York City,1,NEW YORK,EL VATO WINE CORP,BAZAR,31 W 26TH ST,,NEW YORK,NY,10010,862171,8/1/17,8/1/17,7/31/19,40.74437,-73.99014,"(40.74437, -73.99014)"
1299691,ON-PREMISES LIQUOR,252,OP,New York City,1,NEW YORK,CHANSON 23RD STREET LLC,PATISSERIE CHANSON,20 W 23RD ST,,NEW YORK,NY,10010,862170,8/1/17,8/1/17,7/31/19,40.74177,-73.99051,"(40.74177, -73.99051)"
1027299,ON-PREMISES LIQUOR,252,OP,New York City,1,NEW YORK,COBRA RESTAURANT INC,THE PARLOUR,250 WEST 86TH STREET,,NEW YORK,NY,10024,877521,,8/1/17,7/31/19,40.78831707,-73.97666641,"(40.7883170651, -73.976666405)"
1027355,ON-PREMISES LIQUOR,252,OP,New York City,1,NEW YORK,PJJK RESTAURANT CORP,BLONDIES,212 WEST 79TH ST,,NEW YORK,NY,10024,876845,,8/1/17,7/31/19,40.78324007,-73.97868348,"(40.7832400706, -73.9786834785)"
1027534,ON-PREMISES LIQUOR,252,OP,New York City,1,NEW YORK,CAFFE GRAZIE INC,CAFFE GRAZIE,26 E 84TH STREET,,NEW YORK,NY,10028,875823,,8/1/17,7/31/19,40.77959335,-73.96006843,"(40.7795933508, -73.9600684339)"
1118394,ON-PREMISES LIQUOR,252,OP,New York City,1,NEW YORK,ORIGINE LLC,JOJO,160 E 64TH STREET,,NEW YORK,NY,10021,876880,,8/1/17,7/31/19,40.76519445,-73.96567656,"(40.7651944494, -73.9656765571)"
1026444,ON-PREMISES LIQUOR,252,OP,New York City,1,NEW YORK,TOPARO INC,DA TOMMASO,903 8TH AVENUE,,NEW YORK,NY,10019,876613,,8/1/17,7/31/19,40.76487968,-73.9842807,"(40.7648796776, -73.9842806984)"
1026511,ON-PREMISES LIQUOR,252,OP,New York City,1,NEW YORK,787 EIGHTH AVE CORP,AQUA GRILL,787 8TH AVENUE,,NEW YORK,NY,10019,877000,,8/1/17,7/31/19,40.76098265,-73.98714205,"(40.7609826504, -73.9871420478)"
1027925,ON-PREMISES LIQUOR,252,OP,New York City,1,NEW YORK,SANDBAR CONCESSION INC,MINSKOFF THEATRE,200 W 45TH STREET,,NEW YORK,NY,10036,876423,,8/1/17,7/31/19,40.75840358,-73.98676878,"(40.7584035752, -73.9867687849)"
1116871,ON-PREMISES LIQUOR,252,OP,New York City,1,NEW YORK,SUNSHINE USA INC,WU LIANG YE,36 WEST 48TH STREET,5TH & 6TH AVENUES,NEW YORK,NY,10036,876055,,8/1/17,7/31/19,40.75793734,-73.97979136,"(40.7579373372, -73.9797913623)"
1116023,ON-PREMISES LIQUOR,252,OP,New York City,1,NEW YORK,LAGGAN REST INC,MURPHY'S,977 SECOND AVENUE,51ST & 52ND STREETS,NEW YORK,NY,10022,876457,,8/1/17,7/31/19,40.75595313,-73.96780484,"(40.7559531259, -73.9678048417)"
1025980,ON-PREMISES LIQUOR,252,OP,New York City,1,NEW YORK,GRAND CENTRAL OYSTER BAR INC,GRAND CENTRAL OYSTER BAR,GRAND CENTRAL TERMINAL,,NEW YORK,NY,10017,875430,,8/1/17,7/31/19,40.75300149,-73.97786028,"(40.7530014882, -73.9778602761)"
1025809,ON-PREMISES LIQUOR,252,OP,New York City,1,NEW YORK,HAKUBAI INC,,66 PARK AVENUE,17TH FLOOR,NEW YORK,NY,10016,876315,,8/1/17,7/31/19,40.74964683,-73.97967673,"(40.7496468276, -73.9796767338)"
1025878,ON-PREMISES LIQUOR,252,OP,New York City,1,NEW YORK,RIO RESTAURANT ASSOCIATES LTD,EL RIO GRANDE,560 3RD AVE (AKA 160 E 38 ST),,NEW YORK,NY,10016,876607,,8/1/17,7/31/19,40.74765454,-73.97678317,"(40.7476545403, -73.9767831678)"
1117369,ON-PREMISES LIQUOR,252,OP,New York City,1,NEW YORK,DISH RESTAURANT CORP,THE DISH,201 8TH AVENUE,,NEW YORK,NY,10011,877724,,8/1/17,7/31/19,40.74361118,-73.99980486,"(40.7436111825, -73.9998048591)"
1025255,ON-PREMISES LIQUOR,252,OP,New York City,1,NEW YORK,BUBBYS PIE CO INC,,120 HUDSON STREET,,NEW YORK,NY,10013,877732,,8/1/17,7/31/19,40.71991034,-74.00849938,"(40.719910342, -74.0084993793)"
1302115,ON-PREMISES LIQUOR,252,OP,New York City,1,NEW YORK,CATERED BY PERGOLA LLC,GARDENIA TERRACE,826 10TH AVE,,NEW YORK,NY,10019,862172,8/2/17,8/2/17,7/31/19,40.76762,-73.98943,"(40.76762, -73.98943)"
1302746,ON-PREMISES LIQUOR,252,OP,New York City,1,NEW YORK,EL CONDE M&G INC,,4139 BROADWAY,,NEW YORK,NY,10033,862182,8/4/17,8/4/17,7/31/19,40.84611,-73.93868,"(40.84611, -73.93868)"
1302858,ON-PREMISES LIQUOR,252,OP,New York City,1,NEW YORK,INHERENT INC,NARE SUSHI,115 E 57TH ST,PORTION OF GROUND FLOOR,NEW YORK,NY,10022,862181,8/4/17,8/4/17,7/31/19,40.76143,-73.96992,"(40.76143, -73.96992)"
1301876,ON-PREMISES LIQUOR,252,OP,New York City,1,NEW YORK,42ND ST BAKERY LLC,CAFE METRO,14 E 42ND ST,,NEW YORK,NY,10017,862190,8/8/17,8/8/17,7/31/19,40.65586,-73.9387,"(40.65586, -73.9387)"
1301319,ON-PREMISES LIQUOR,252,OP,New York City,1,NEW YORK,MARIE ADRIENNE LLC,THE SHIP,158 LAFAYETTE,,NEW YORK,NY,10013,862195,8/9/17,8/9/17,7/31/19,40.71977,-73.99937,"(40.71977, -73.99937)"
1300954,ON-PREMISES LIQUOR,252,OP,New York City,1,NEW YORK,EMMY SQUARED BEDFORD LLC,EMILY,31 33 BEDFORD ST,AKA/ 35 DOWNING ST,NEW YORK,NY,10014,862204,8/4/17,8/11/17,7/31/19,0,0,"(0.0, 0.0)"
1300708,ON-PREMISES LIQUOR,252,OP,New York City,1,NEW YORK,330 WB OPERATIONS LLC,SOLA PASTA BAR,330 W BROADWAY,,NEW YORK,NY,10013,862201,8/11/17,8/11/17,7/31/19,40.72229,-74.00403,"(40.72229, -74.00403)"
1301585,ON-PREMISES LIQUOR,252,OP,New York City,1,NEW YORK,"75 CLUB LLC, THE",75 CLUB,75 MURRAY ST,,NEW YORK,NY,10007,862203,8/11/17,8/11/17,7/31/19,40.71472,-74.01062,"(40.71472, -74.01062)"
1302379,ON-PREMISES LIQUOR,252,OP,New York City,1,NEW YORK,ANCHOR HEIGHTS LLC,ANCHOR HEIGHTS WINE BAR,575 W 207TH ST,,NEW YORK,NY,10034,862206,8/14/17,8/14/17,7/31/19,40.86666,-73.92037,"(40.86666, -73.92037)"
1301648,ON-PREMISES LIQUOR,252,OP,New York City,1,NEW YORK,TUMMA KHAKUEN INC,THEP THAI RESTAURANT,1439 2ND AVE,,NEW YORK,NY,10021,862207,8/14/17,8/14/17,7/31/19,40.77073,-73.95718,"(40.77073, -73.95718)"
1299938,ON-PREMISES LIQUOR,252,OP,New York City,1,NEW YORK,DOS AMIGOS RESTAURANT GROUP LLC,LA CHULA,137 E 116TH ST,1872 LEXINGTON AVE,NEW YORK,NY,10029,862208,8/15/17,8/15/17,7/31/19,40.79882,-73.94168,"(40.79882, -73.94168)"
1303865,ON-PREMISES LIQUOR,252,OP,New York City,1,NEW YORK,CHIPOTLE MEXICAN GRILL OF COLORADO LLC,CHIPOTLE MEXICAN GRILL #2602,805 COLUMBUS AVE,,NEW YORK,NY,10025,862245,8/18/17,8/18/17,7/31/19,40.79564,-73.9654,"(40.79564, -73.9654)"
1302440,ON-PREMISES LIQUOR,252,OP,New York City,1,NEW YORK,MODERN INDIAN TAPA INC,TAPA,102 LEXINGTON AVE,,NEW YORK,NY,10016,862241,8/18/17,8/18/17,7/31/19,40.74223,-73.98294,"(40.74223, -73.98294)"
1302240,ON-PREMISES LIQUOR,252,OP,New York City,1,NEW YORK,226 3RD RESTAURANT LLC,SAL ANTHONY'S RESTAURANT,226 3RD AVE,,NEW YORK,NY,10003,862239,8/18/17,8/18/17,7/31/19,40.73658,-73.98502,"(40.73658, -73.98502)"
1301522,ON-PREMISES LIQUOR,252,OP,New York City,1,NEW YORK,MORARS LLC,MISIRIZZI,36 E 4TH ST,,NEW YORK,NY,10003,862240,8/18/17,8/18/17,7/31/19,40.72729,-73.9922,"(40.72729, -73.9922)"
1296970,ON-PREMISES LIQUOR,252,OP,New York City,1,NEW YORK,LANTERN GLOBAL LLC,LANTERN,246 W 48TH ST,,NEW YORK,NY,10036,862251,8/22/17,8/22/17,7/31/19,40.76074,-73.98659,"(40.76074, -73.98659)"
1296997,ON-PREMISES LIQUOR,252,OP,New York City,1,NEW YORK,IPPUDO NY LLC,,24 W 46TH ST,,NEW YORK,NY,10036,862253,8/22/17,8/22/17,7/31/19,40.75648,-73.98039,"(40.75648, -73.98039)"
1296580,ON-PREMISES LIQUOR,252,OP,New York City,1,NEW YORK,BLACK TAP MIDTOWN LLC,BLACK TAP,136 W 55TH ST,,NEW YORK,NY,10019,862256,8/23/17,8/23/17,7/31/19,40.76357,-73.9797,"(40.76357, -73.9797)"
1301571,ON-PREMISES LIQUOR,252,OP,New York City,1,NEW YORK,DA CAPO CORP,,322 COLUMBUS AVE,,NEW YORK,NY,10023,862262,8/24/17,8/24/17,7/31/19,40.77947,-73.97737,"(40.77947, -73.97737)"
1302395,ON-PREMISES LIQUOR,252,OP,New York City,1,NEW YORK,329 BLEECKER CORP,ATTRAVERSIAMO,329 W 51ST ST,,NEW YORK,NY,10019,862268,8/25/17,8/25/17,7/31/19,40.76354,-73.98686,"(40.76354, -73.98686)"
1303784,ON-PREMISES LIQUOR,252,OP,New York City,1,NEW YORK,HUMBERTO'S RICE & BEANS LLC,,1318 ST NICHOLAS AVE,,NEW YORK,NY,10033,862285,8/30/17,8/30/17,7/31/19,40.84587,-73.93602,"(40.84587, -73.93602)"
1300016,ON-PREMISES LIQUOR,252,OP,New York City,1,NEW YORK,"MAZI HOSPITALITY GROUP, LLC",VOULA,9 JONES ST,,NEW YORK,NY,10014,862289,8/31/17,8/31/17,7/31/19,40.73224,-74.00215,"(40.73224, -74.00215)"
1294703,ON-PREMISES LIQUOR,252,OP,New York City,1,NEW YORK,SHOOT FOOD CORPORATION,SPOON CATERING TBSP,40 E 33RD ST,,NEW YORK,NY,10016,878932,7/28/16,9/1/17,8/31/19,40.74668,-73.98271,"(40.74668, -73.98271)"
1301015,ON-PREMISES LIQUOR,252,OP,New York City,1,NEW YORK,RAA NYC 2 LLC,SAHIB,104 LEXINGTON AVE,,NEW YORK,NY,10016,862301,9/1/17,9/1/17,8/31/19,40.74227,-73.98291,"(40.74227, -73.98291)"
1300196,ON-PREMISES LIQUOR,252,OP,New York City,1,NEW YORK,CASITA WEST VILLAGE LLC,CASITA,681 WASHINGTON ST,,NEW YORK,NY,10014,862303,9/1/17,9/1/17,8/31/19,40.73392,-74.00838,"(40.73392, -74.00838)"
1303707,ON-PREMISES LIQUOR,252,OP,New York City,1,NEW YORK,WEST D & P LLC,GINA,2028 2032 BROADWAY,AKA 150 154 W 70TH ST,NEW YORK,NY,10023,862306,9/1/17,9/1/17,8/31/19,0,0,"(0.0, 0.0)"
1027216,ON-PREMISES LIQUOR,252,OP,New York City,1,NEW YORK,PROSCENIUM PARTNERS INC,THE TRIAD,158 W 72ND STREET,,NEW YORK,NY,10023,878703,,9/1/17,8/31/19,40.77821036,-73.98081791,"(40.7782103555, -73.9808179077)"
1027891,ON-PREMISES LIQUOR,252,OP,New York City,1,NEW YORK,POLA RESTAURANT INC,BECCO,355 W 46TH STREET,,NEW YORK,NY,10036,877938,,9/1/17,8/31/19,40.76048895,-73.98943178,"(40.7604889528, -73.9894317788)"
1027929,ON-PREMISES LIQUOR,252,OP,New York City,1,NEW YORK,SANDBAR CONCESSION INC,BROOKS ATKINSON THEATRE,256 W 47TH STREET,,NEW YORK,NY,10036,876802,,9/1/17,8/31/19,40.75991425,-73.98644944,"(40.7599142491, -73.9864494378)"
1026020,ON-PREMISES LIQUOR,252,OP,New York City,1,NEW YORK,MORTONS OF CHICAGO/5TH AVE INC,MORTON'S THE STEAKHOUSE,551 5TH AVENUE,,NEW YORK,NY,10017,877861,,9/1/17,8/31/19,40.75554721,-73.97923994,"(40.7555472109, -73.979239935)"
1023972,ON-PREMISES LIQUOR,252,OP,New York City,1,NEW YORK,CO'R RESTAURANT L L C,O'REILLY'S PUB & RESTAURANT,56 W 31ST STREET,,NEW YORK,NY,10001,877933,,9/1/17,8/31/19,40.74755694,-73.98850344,"(40.7475569431, -73.9885034434)"
1025935,ON-PREMISES LIQUOR,252,OP,New York City,1,NEW YORK,513 THIRD RESTAURANT LTD,JOSHUA TREE,513 3RD AVENUE,,NEW YORK,NY,10016,878768,,9/1/17,8/31/19,40.74594181,-73.97786427,"(40.7459418132, -73.9778642729)"
1024912,ON-PREMISES LIQUOR,252,OP,New York City,1,NEW YORK,L RAY LLC,TEDDY'S HIDEWAY,64 W 10TH STREET,,NEW YORK,NY,10011,877975,,9/1/17,8/31/19,40.73425707,-73.99759929,"(40.7342570711, -73.9975992901)"
1024187,ON-PREMISES LIQUOR,252,OP,New York City,1,NEW YORK,BLUE & GOLD BAR INC,,79 E 7TH STREET,GROUND FLOOR STORE,NEW YORK,NY,10003,878033,,9/1/17,8/31/19,40.72727561,-73.9863089,"(40.7272756137, -73.9863088953)"
1024243,ON-PREMISES LIQUOR,252,OP,New York City,1,NEW YORK,HAVELI RESTAURANT INC,,100 2ND AVENUE,,NEW YORK,NY,10003,878734,,9/1/17,8/31/19,40.72725599,-73.98856047,"(40.7272559941, -73.9885604694)"
1024675,ON-PREMISES LIQUOR,252,OP,New York City,1,NEW YORK,THUNDERBOLT CORP,ACE,531 E 5TH STREET,,NEW YORK,NY,10009,877541,,9/1/17,8/31/19,40.72458324,-73.98361409,"(40.7245832429, -73.9836140911)"
1026041,ON-PREMISES LIQUOR,252,OP,New York City,1,NEW YORK,PUNCHGINI INC,BUKHARA GRILL & INDIAN SPI,217 E 49TH ST,,NEW YORK,NY,10017,878911,,9/1/17,8/31/19,,,
1295706,ON-PREMISES LIQUOR,252,OP,New York City,1,NEW YORK,AGN RESTAURANT LLC,THE FERN,166 1ST AVE,,NEW YORK,NY,10003,862315,9/6/17,9/6/17,8/31/19,40.72886,-73.98415,"(40.72886, -73.98415)"
1301519,ON-PREMISES LIQUOR,252,OP,New York City,1,NEW YORK,STARLAP INC,THE DANCER,202 CLINTON ST,,NEW YORK,NY,10002,862314,9/6/17,9/6/17,8/31/19,40.714,-73.98705,"(40.714, -73.98705)"
1301609,ON-PREMISES LIQUOR,252,OP,New York City,1,NEW YORK,TULCINGO RESTAURANT INC,DEL VALLE RESTAURANT & DELI,665 10TH AVE,,NEW YORK,NY,10036,862323,9/7/17,9/7/17,8/31/19,40.76271,-73.99345,"(40.76271, -73.99345)"
1302821,ON-PREMISES LIQUOR,252,OP,New York City,1,NEW YORK,485 ROOFTOP LLC & SEVENTH AVENUE HOSPITALITY LLC,MOXY TIMES SQUARE ROOFTOP,485 7TH AVE,FL 17,NEW YORK,NY,10018,862334,9/7/17,9/7/17,8/31/19,40.75238,-73.98939,"(40.75238, -73.98939)"
1300551,ON-PREMISES LIQUOR,252,OP,New York City,1,NEW YORK,DTJC MANAGEMENT NEW YORK INC,LOTUS BLUE DONGTIAN KITCHEN BAR,15 UNION SQUARE WEST,UNIT D/RETAIL STORE# 113,NEW YORK,NY,10003,862333,9/7/17,9/7/17,8/31/19,40.73587,-73.99133,"(40.73587, -73.99133)"
1295350,ON-PREMISES LIQUOR,252,OP,New York City,1,NEW YORK,BROADWAY HOSPITALITY VENTURE LLC,BOND 45 ITALIAN RESTAURANT & BAR,221 W 46TH ST,,NEW YORK,NY,10036,862340,9/8/17,9/8/17,8/31/19,40.75923,-73.98634,"(40.75923, -73.98634)"
1303021,ON-PREMISES LIQUOR,252,OP,New York City,1,NEW YORK,FOODEX NEW YORK INC,TONCHIN NEW YORK,13 W 36TH ST,,NEW YORK,NY,10018,862343,9/8/17,9/8/17,8/31/19,40.75022,-73.98455,"(40.75022, -73.98455)"
1303442,ON-PREMISES LIQUOR,252,OP,New York City,1,NEW YORK,BEANS & VINES CORP,,4799 BROADWAY,,NEW YORK,NY,10034,862664,9/12/17,9/12/17,8/31/19,40.86637,-73.92507,"(40.86637, -73.92507)"
1303417,ON-PREMISES LIQUOR,252,OP,New York City,1,NEW YORK,MADE IN MEXICO HARLEM CORP,,247 E 111TH ST,"STORE 1,2",NEW YORK,NY,10029,862356,9/12/17,9/12/17,8/31/19,40.79399,-73.94028,"(40.79399, -73.94028)"
1303267,ON-PREMISES LIQUOR,252,OP,New York City,1,NEW YORK,LOEWS REGENCY NY HOTEL LLC& SA 61ST MANAGEMENT LLC,SANT AMBROEUS COFFEE BAR AT LOEWS REGENCY HOTEL,540 PARK AVE,AKA 35 39 E 61ST ST,NEW YORK,NY,10065,862353,9/12/17,9/12/17,8/31/19,40.76441,-73.96904,"(40.76441, -73.96904)"
1303328,ON-PREMISES LIQUOR,252,OP,New York City,1,NEW YORK,M O A SABRY CORP,UTOPIA RESTAURANT,267 AMSTERDAM AVE,,NEW YORK,NY,10023,862357,9/13/17,9/13/17,8/31/19,40.77877,-73.98129,"(40.77877, -73.98129)"
1303622,ON-PREMISES LIQUOR,252,OP,New York City,1,NEW YORK,MOMOSAN RAMEN LLC,MOMOSAN RAMEN & SAKE,342 LEXINGTON AVE,,NEW YORK,NY,10016,862363,9/13/17,9/13/17,8/31/19,40.74989,-73.97736,"(40.74989, -73.97736)"
1302951,ON-PREMISES LIQUOR,252,OP,New York City,1,NEW YORK,CHIPOTLE MEXICAN GRILL OF COLORADO LLC,CHIPOTLE MEXICAN GRILL #2476,286 1ST AVE,,NEW YORK,NY,10009,862360,9/13/17,9/13/17,8/31/19,40.73305,-73.98096,"(40.73305, -73.98096)"
1303888,ON-PREMISES LIQUOR,252,OP,New York City,1,NEW YORK,"NEW YORK PUBLIC LIBRARY, THE",,5TH AVE & 42ND ST,SALOMON ROOM - ROOM 316,NEW YORK,NY,10018,862358,9/13/17,9/13/17,8/31/19,0,0,"(0.0, 0.0)"
1303932,ON-PREMISES LIQUOR,252,OP,New York City,1,NEW YORK,"NEW YORK PUBLIC LIBRARY, THE",,5TH AVE & 42ND ST,TRUSTEES ROOM - 206,NEW YORK,NY,10018,862359,9/13/17,9/13/17,8/31/19,0,0,"(0.0, 0.0)"
1303226,ON-PREMISES LIQUOR,252,OP,New York City,1,NEW YORK,BJ&HR RESTAURANT GROUP LLC,BEN & JACK'S STEAKHOUSE,219 E 44TH ST,,NEW YORK,NY,10017,862378,9/14/17,9/14/17,8/31/19,40.75173,-73.97244,"(40.75173, -73.97244)"
1303331,ON-PREMISES LIQUOR,252,OP,New York City,1,NEW YORK,RED DROP LLC,CELLO WINE BAR,226 E 53RD ST,WEST STORE,NEW YORK,NY,10022,862380,9/15/17,9/15/17,8/31/19,40.75716,-73.96834,"(40.75716, -73.96834)"
1299917,ON-PREMISES LIQUOR,252,OP,New York City,1,NEW YORK,161 8TH AVE RESTAURANT LLC,SEAMORE'S,161 8TH AVE,,NEW YORK,NY,10011,862401,5/9/17,9/19/17,4/30/19,40.74243,-74.0008,"(40.74243, -74.0008)"
1303091,ON-PREMISES LIQUOR,252,OP,New York City,1,NEW YORK,BOULEY TEST KITCHEN 21 LLC,BOULEY TEST KITCHEN 21,31 WEST 21ST ST,,NEW YORK,NY,10010,862392,9/19/17,9/19/17,8/31/19,40.74107,-73.99218,"(40.74107, -73.99218)"
1299428,ON-PREMISES LIQUOR,252,OP,New York City,1,NEW YORK,TOMINO LLC,,192 GRAND ST,,NEW YORK,NY,10013,862405,9/19/17,9/19/17,8/31/19,40.71933,-73.99697,"(40.71933, -73.99697)"
1303441,ON-PREMISES LIQUOR,252,OP,New York City,1,NEW YORK,SEASIDE BEACH INC,THE LOST LADY,171 173 AVE C,,NEW YORK,NY,10009,862400,9/19/17,9/19/17,8/31/19,0,0,"(0.0, 0.0)"
1301622,ON-PREMISES LIQUOR,252,OP,New York City,1,NEW YORK,INTERNATIONAL CTR OF PHOTOGRAPHY & GREAT,PERFORMANCE/ARTISTS AS WAITRESSES INC/DBA ICP CAFE,250 BOWERY,,NEW YORK,NY,10012,877370,6/14/17,9/20/17,5/31/19,40.723,-73.99316,"(40.723, -73.99316)"
1301278,ON-PREMISES LIQUOR,252,OP,New York City,1,NEW YORK,BAR 263 INC,BAR 263,203 E 26TH ST,,NEW YORK,NY,10010,862413,8/29/17,9/20/17,7/31/19,40.74067,-73.98137,"(40.74067, -73.98137)"
1303065,ON-PREMISES LIQUOR,252,OP,New York City,1,NEW YORK,TWO MELONS LLC,JG MELON,480 AMSTERDAM AVE,,NEW YORK,NY,10024,862416,9/21/17,9/21/17,8/31/19,40.7859,-73.97653,"(40.7859, -73.97653)"
1303326,ON-PREMISES LIQUOR,252,OP,New York City,1,NEW YORK,VOTE FOR PEDRO LLC,VOTE FOR PEDRO,231 E 53RD ST,,NEW YORK,NY,10022,862417,9/21/17,9/21/17,8/31/19,40.75725,-73.96808,"(40.75725, -73.96808)"
1304269,ON-PREMISES LIQUOR,252,OP,New York City,1,NEW YORK,GUACAMOLE MIDTOWN CORP,GUACAMOLE TAQUERIA,768 AMSTERDAM AVE,,NEW YORK,NY,10025,862434,9/22/17,9/22/17,8/31/19,40.79515,-73.9698,"(40.79515, -73.9698)"
1304126,ON-PREMISES LIQUOR,252,OP,New York City,1,NEW YORK,DIM SUM PALACE YAN INC,,47 W 55TH ST,,NEW YORK,NY,10019,862432,9/22/17,9/22/17,8/31/19,40.76259,-73.97681,"(40.76259, -73.97681)"
1300952,ON-PREMISES LIQUOR,252,OP,New York City,1,NEW YORK,ALL FRONTIER AMERICA INC,TEISUI,246 5TH AVE,1ST FL,NEW YORK,NY,10001,862426,9/22/17,9/22/17,8/31/19,40.74465,-73.98755,"(40.74465, -73.98755)"
1301387,ON-PREMISES LIQUOR,252,OP,New York City,1,NEW YORK,ZMZ BARROW TAVERN LLC,BARROW STREET ALE HOUSE,15 BARROW ST,,NEW YORK,NY,10014,862424,9/22/17,9/22/17,8/31/19,40.73261,-74.00257,"(40.73261, -74.00257)"
1302424,ON-PREMISES LIQUOR,252,OP,New York City,1,NEW YORK,ZMZ MACDOUGAL TAVERN LLC,MACDOUGAL STREET ALE HOUSE,122 MACDOUGAL ST,,NEW YORK,NY,10012,862425,9/22/17,9/22/17,8/31/19,40.72992,-74.00044,"(40.72992, -74.00044)"
1303514,ON-PREMISES LIQUOR,252,OP,New York City,1,NEW YORK,UMM HOSPITALITY INC,UMMBURGER,99 1ST AVE,,NEW YORK,NY,10003,862423,9/22/17,9/22/17,8/31/19,40.72658,-73.9863,"(40.72658, -73.9863)"
1302138,ON-PREMISES LIQUOR,252,OP,New York City,1,NEW YORK,SCOOBS 359 INC,EL CENTRO CANTINA,359 W 54TH ST,,NEW YORK,NY,10019,862448,9/27/17,9/27/17,8/31/19,40.76593,-73.98675,"(40.76593, -73.98675)"
1302077,ON-PREMISES LIQUOR,252,OP,New York City,1,NEW YORK,JOIN US HK LLC,HOLD FAST,364 W 46TH ST,,NEW YORK,NY,10036,862450,9/27/17,9/27/17,8/31/19,40.76064,-73.99023,"(40.76064, -73.99023)"
1303789,ON-PREMISES LIQUOR,252,OP,New York City,1,NEW YORK,"PENNSY HOLDINGS LLC, THE & PENN HOSPITALITY LLC",THE PENNSY,2 PENN PLAZA,GROUND FLOOR,NEW YORK,NY,10121,862461,9/28/17,9/28/17,8/31/19,40.74959,-73.99172,"(40.74959, -73.99172)"
1304113,ON-PREMISES LIQUOR,252,OP,New York City,1,NEW YORK,EAT @ SHERMAN CREEK INC,TABOGA,421 W 202ND ST,,NEW YORK,NY,10034,862469,9/29/17,9/29/17,8/31/19,40.86075,-73.91975,"(40.86075, -73.91975)"
1303229,ON-PREMISES LIQUOR,252,OP,New York City,1,NEW YORK,CINEMA BEVERAGES HOLDING COMPANY LLC,JD'S PLACE,657 W 57TH ST,,NEW YORK,NY,10019,862471,9/29/17,9/29/17,8/31/19,40.77093,-73.9927,"(40.77093, -73.9927)"
1026035,ON-PREMISES LIQUOR,252,OP,New York City,1,NEW YORK,PATROON OPERATING COMPANY LLC,ARETSKY'S PATROON,158 160 E 46TH ST,,NEW YORK,NY,10017,881971,8/10/16,10/1/17,9/30/19,40.75362308,-73.97348376,"(40.7536230795, -73.97348376)"
1027233,ON-PREMISES LIQUOR,252,OP,New York City,1,NEW YORK,STREATOR INC,CAFE LUXEMBOURG,200 W 70TH STREET,,NEW YORK,NY,10023,879497,,10/1/17,9/30/19,40.77725094,-73.98262448,"(40.7772509414, -73.9826244751)"
1027111,ON-PREMISES LIQUOR,252,OP,New York City,1,NEW YORK,37 EAST 50TH STREET CORP & REST GROUP MANAGEMENT,SVRS LLC - DBA MALONEY & PORCELLI,37 E 50TH STREET,,NEW YORK,NY,10022,879099,,10/1/17,9/30/19,40.7577996,-73.97532339,"(40.7577996019, -73.9753233864)"
1024041,ON-PREMISES LIQUOR,252,OP,New York City,1,NEW YORK,N & A PRODUCTIONS INC,,27 W 35TH ST,,NEW YORK,NY,10001,879334,,10/1/17,9/30/19,40.7495886,-73.98504589,"(40.7495886008, -73.9850458923)"
1025860,ON-PREMISES LIQUOR,252,OP,New York City,1,NEW YORK,ORENSE INC,TOLEDO RESTAURANT,6 E 36TH STREET,,NEW YORK,NY,10016,879453,,10/1/17,9/30/19,40.74948785,-73.98321996,"(40.7494878529, -73.9832199551)"
1024779,ON-PREMISES LIQUOR,252,OP,New York City,1,NEW YORK,RHM RESTAURANT CORP,ROLFS,281 3RD AVE,,NEW YORK,NY,10010,879379,,10/1/17,9/30/19,40.73810918,-73.98357787,"(40.7381091782, -73.9835778654)"
1025501,ON-PREMISES LIQUOR,252,OP,New York City,1,NEW YORK,CHRIS ESTEY FOOD INC,PIECES,8 CHRISTOPHER ST,,NEW YORK,NY,10014,878491,,10/1/17,9/30/19,40.73400324,-73.99966672,"(40.7340032419, -73.9996667161)"
1025093,ON-PREMISES LIQUOR,252,OP,New York City,1,NEW YORK,IL BUCO CORP,IL BUCO,47 BOND ST,,NEW YORK,NY,10012,879110,,10/1/17,9/30/19,40.72618548,-73.99336065,"(40.7261854751, -73.9933606463)"
1025133,ON-PREMISES LIQUOR,252,OP,New York City,1,NEW YORK,NOHO STAR INC,NOHO STAR,54 BLEECKER STREET,,NEW YORK,NY,10012,879429,,10/1/17,9/30/19,40.72597627,-73.99489191,"(40.7259762673, -73.9948919106)"
1025347,ON-PREMISES LIQUOR,252,OP,New York City,1,NEW YORK,P E C GROUP LTD,PEPOLINO,281 W BROADWAY,,NEW YORK,NY,10013,879093,,10/1/17,9/30/19,40.72063981,-74.00505268,"(40.7206398059, -74.0050526766)"
1302413,ON-PREMISES LIQUOR,252,OP,New York City,1,NEW YORK,SAMARPAN INC,FUSSIONHK BAR-GRILL,688 10TH AVE,NORTHERN PORTION OF BUILDING,NEW YORK,NY,10019,862474,10/2/17,10/2/17,9/30/19,40.76351,-73.99242,"(40.76351, -73.99242)"
1297839,ON-PREMISES LIQUOR,252,OP,New York City,1,NEW YORK,FIVE AND DIME HOSPITALITY LLC,,8 PARK PL,,NEW YORK,NY,10007,862482,10/3/17,10/3/17,9/30/19,40.69372,-73.8274,"(40.69372, -73.8274)"
1299907,ON-PREMISES LIQUOR,252,OP,New York City,1,NEW YORK,FOREVER SWEET LLC,UES,1707 2ND AVE,NORTH STORE,NEW YORK,NY,10128,862485,10/4/17,10/4/17,9/30/19,40.77954,-73.95076,"(40.77954, -73.95076)"
1302690,ON-PREMISES LIQUOR,252,OP,New York City,1,NEW YORK,AIN JUPITER LLC,LA SIRENE UWS,416 AMSTERDAM AVE,,NEW YORK,NY,10024,877436,10/6/17,10/6/17,9/30/19,40.7838,-73.97806,"(40.7838, -73.97806)"
1302701,ON-PREMISES LIQUOR,252,OP,New York City,1,NEW YORK,BALLINTEER CORP,DOYLERS,326 W 37TH ST,,NEW YORK,NY,10018,862500,10/6/17,10/6/17,9/30/19,40.75456,-73.99334,"(40.75456, -73.99334)"
1303834,ON-PREMISES LIQUOR,252,OP,New York City,1,NEW YORK,FIRST LLC,RAVIOLO,57-59 7TH AVE SOUTH,,NEW YORK,NY,10014,862502,10/6/17,10/6/17,9/30/19,40.73156,-74.00389,"(40.73156, -74.00389)"
1304480,ON-PREMISES LIQUOR,252,OP,New York City,1,NEW YORK,SOBAYA RESTAURANT INC,HI COLLAR,214 E 10TH ST,,NEW YORK,NY,10003,862503,10/6/17,10/6/17,9/30/19,40.72931,-73.98597,"(40.72931, -73.98597)"
1304723,ON-PREMISES LIQUOR,252,OP,New York City,1,NEW YORK,JRFOODHUB LLC,INDIAN PROJECT,243 W 38TH ST,,NEW YORK,NY,10018,862506,10/10/17,10/10/17,9/30/19,40.75425,-73.99027,"(40.75425, -73.99027)"
1303764,ON-PREMISES LIQUOR,252,OP,New York City,1,NEW YORK,TAILGATE CLOTHING CORP & ER 26TH LLC,EL REY ANNEX,25 E 26TH ST,AKA 60 MADISON AVE,NEW YORK,NY,10010,862507,10/10/17,10/10/17,9/30/19,40.74293,-73.9868,"(40.74293, -73.9868)"
1303415,ON-PREMISES LIQUOR,252,OP,New York City,1,NEW YORK,BACON & BAGELS LLC,QUALITY EATS,1496 2ND AVE,,NEW YORK,NY,10075,862516,10/11/17,10/11/17,9/30/19,40.77249,-73.95545,"(40.77249, -73.95545)"
1304670,ON-PREMISES LIQUOR,252,OP,New York City,1,NEW YORK,SABHARWAL HOSPITALITY GROUP LLC,PIPPALI,129 E 27TH ST,,NEW YORK,NY,10016,862517,10/11/17,10/11/17,9/30/19,40.74233,-73.98331,"(40.74233, -73.98331)"
1304678,ON-PREMISES LIQUOR,252,OP,New York City,1,NEW YORK,SUSPENDERS AND BELT LLC,SUSPENDERS RESTAURANT,108 GREENWICH ST,1ST FLOOR,NEW YORK,NY,10006,862518,10/11/17,10/11/17,9/30/19,40.70857,-74.01347,"(40.70857, -74.01347)"
1297034,ON-PREMISES LIQUOR,252,OP,New York City,1,NEW YORK,MARGARITA MEXICAN TAPAS INC,BRASIER CEVICHE WINE BAR,3775 10TH AVE,,NEW YORK,NY,10034,862521,10/12/17,10/12/17,9/30/19,40.86155,-73.92084,"(40.86155, -73.92084)"
1302929,ON-PREMISES LIQUOR,252,OP,New York City,1,NEW YORK,TACODUMBO 666 5TH LLC,TACODUMBO,15 W 52ND ST,AKA 666 5TH AVE,NEW YORK,NY,10019,862526,10/13/17,10/13/17,9/30/19,40.76041,-73.97606,"(40.76041, -73.97606)"
1297466,ON-PREMISES LIQUOR,252,OP,New York City,1,NEW YORK,4716 ARDEN LLC,CANAVE,4714 4716 BROADWAY,,NEW YORK,NY,10040,862524,10/13/17,10/13/17,9/30/19,0,0,"(0.0, 0.0)"
1294781,ON-PREMISES LIQUOR,252,OP,New York City,1,NEW YORK,FRIEDMAN'S 47TH LLC,FRIEDMAN'S,228 W 47TH ST,"CAFE SPACE, GRD FLR EAST STORE",NEW YORK,NY,10036,862533,10/16/17,10/16/17,9/30/19,40.75972,-73.98612,"(40.75972, -73.98612)"
1305385,ON-PREMISES LIQUOR,252,OP,New York City,1,NEW YORK,LPB2 LLC,,950 2ND AVE,,NEW YORK,NY,10022,877453,10/16/17,10/16/17,9/30/19,40.75506,-73.9683,"(40.75506, -73.9683)"
1304884,ON-PREMISES LIQUOR,252,OP,New York City,1,NEW YORK,L ATELIER NYC LLC,L'ATELIER DE JOEL ROBUCHON,85 10TH AVE,,NEW YORK,NY,10011,862534,10/16/17,10/16/17,9/30/19,40.74303,-74.00779,"(40.74303, -74.00779)"
1303039,ON-PREMISES LIQUOR,252,OP,New York City,1,NEW YORK,HIGHLINE GROUP NYC LLC,KAHLO,525 W 29TH ST,,NEW YORK,NY,10001,862547,10/19/17,10/19/17,9/30/19,40.75208,-74.00268,"(40.75208, -74.00268)"
1303486,ON-PREMISES LIQUOR,252,OP,New York City,1,NEW YORK,ROCKYS PIZZA VINOTECA INC,,535 3RD AVE,,NEW YORK,NY,10016,862545,10/19/17,10/19/17,9/30/19,40.74666,-73.97722,"(40.74666, -73.97722)"
1303951,ON-PREMISES LIQUOR,252,OP,New York City,1,NEW YORK,LETS EAT CANTINA INC,PEPE ROSSO CANTINA,173 MOTT ST,BASEMENT,NEW YORK,NY,10013,862546,10/19/17,10/19/17,9/30/19,40.72004,-73.99619,"(40.72004, -73.99619)"
1303861,ON-PREMISES LIQUOR,252,OP,New York City,1,NEW YORK,AMERICAN GIRL RETAIL INC,,75 ROCKEFELLER PLAZA,,NEW YORK,NY,10019,862561,10/23/17,10/23/17,9/30/19,40.75981,-73.97802,"(40.75981, -73.97802)"
1299652,ON-PREMISES LIQUOR,252,OP,New York City,1,NEW YORK,MC 137 INC,OFFSIDE TAVERN,137 W 14TH ST,,NEW YORK,NY,10011,877486,6/19/17,10/25/17,5/31/19,40.73821,-73.99844,"(40.73821, -73.99844)"
1300356,ON-PREMISES LIQUOR,252,OP,New York City,1,NEW YORK,GOOSPK 1604 BROADWAY II LLC,OPRY CITY STAGE,1604 BROADWAY,,NEW YORK,NY,10019,862573,10/25/17,10/25/17,9/30/19,40.76061,-73.98435,"(40.76061, -73.98435)"
1301014,ON-PREMISES LIQUOR,252,OP,New York City,1,NEW YORK,CASA ANTONUCCI LLC,AL VAPORETTO,168 E 81ST ST,,NEW YORK,NY,10028,862577,10/26/17,10/26/17,9/30/19,40.77575,-73.95694,"(40.77575, -73.95694)"
1302706,ON-PREMISES LIQUOR,252,OP,New York City,1,NEW YORK,BCRC LLC,BY CHLOE,1 ROCKEFELLER PLAZA,SUITE C,NEW YORK,NY,10020,862576,10/26/17,10/26/17,9/30/19,40.75809,-73.97901,"(40.75809, -73.97901)"
